,Rank,institution,location code,location,ar score,ar rank,er score,er rank,fsr score,fsr rank,cpf score,cpf rank,ifr score,ifr rank,isr score,isr rank,irn score,irn rank,ger score,ger rank,score scaled,address,longitude,latitude
0,1,Massachusetts Institute of Technology (MIT) ,US,United States,100,5,100,4,100,14,100,5,100,54,90,109,96.1,58,100,3,100,"Massachusetts Institute of Technology, Grove Avenue, Cambridgeport, Cambridge, Middlesex County, Massachusetts, 02139, United States",-71.09662724,42.3582529
1,2,University of Cambridge,UK,United Kingdom,100,2,100,2,100,11,92.3,55,100,60,96.3,70,99.5,6,100,9,98.8,"University of Cambridge, 15, J J Thomson Avenue, Eddington, Cambridge, Cambridgeshire, Cambridgeshire and Peterborough, England, CB3 0FD, United Kingdom",0.092004976,52.21094555
2,3,Stanford University,US,United States,100,4,100,5,100,6,99.9,9,99.8,74,60.3,235,96.3,55,100,2,98.5,"Stanford University, 408, Panama Mall, Stanford, Santa Clara County, California, 94305, United States",-122.1693654,37.43131385
3,4,University of Oxford,UK,United Kingdom,100,3,100,3,100,8,90,64,98.8,101,98.4,54,99.9,3,100,7,98.4,"Oxford, University Town Center, Irvine, Orange County, California, 92612, United States",-117.8281794,33.6502899
4,5,Harvard University,US,United States,100,1,100,1,99.4,35,100,2,76.9,228,66.9,212,100,1,100,1,97.6,"Harvard University, Everett Street, Baldwin, Cambridge, Middlesex County, Massachusetts, 02163, United States",-71.12678237,42.36790855
5,6,California Institute of Technology (Caltech),US,United States,96.5,28,87.1,58,100,3,100,4,99.8,75,85.1,134,73,425,98.8,24,97,"California Institute of Technology, East California Boulevard, Pasadena, Los Angeles County, California, 91125, United States",-118.1252883,34.13701375
6,7,Imperial College London,UK,United Kingdom,98.3,24,99.7,10,99.5,34,86.5,84,100,55,100,13,98.1,20,88.8,76,97,"Imperial College London, Exhibition Road, Knightsbridge, London, Greater London, England, SW7 2AZ, United Kingdom",-0.175640693,51.4989595
7,8,UCL,UK,United Kingdom,99.4,14,98.6,16,97.6,51,77,119,99.2,87,100,14,100,2,90.3,71,95,"UCL, 188, Tottenham Court Road, St Giles, Fitzrovia, London Borough of Camden, London, Greater London, England, W1T 7PQ, United Kingdom",-0.135151497,51.5217852
8,9,ETH Zurich - Swiss Federal Institute of Technology,CH,Switzerland,98.6,18,91.3,51,74.2,164,99.2,18,100,24,98,59,96.2,56,91.1,64,93.6,,,
9,10,University of Chicago,US,United States,99.2,16,92.2,46,92.9,71,86.8,79,81.6,214,76,176,89.6,170,98.2,30,93.2,"The University of Chicago, 5801, South Ellis Avenue, Woodlawn, Chicago, Hyde Park Township, Cook County, Illinois, 60637, United States",-87.59052371,41.784977
10,11,National University of Singapore (NUS),SG,Singapore,99.5,13,94.1,36,79.8,136,91.8,58,100,33,73.5,187,89.9,165,99.6,16,92.7,"National University of Singapore, Pasir Panjang Road, Queenstown, Southwest, 117484, Singapore",103.7768977,1.2962018
11,12,Peking University,CN,China (Mainland),99.3,15,96.5,28,87.3,98,96.7,34,57.1,323,36.9,376,77.5,354,91.4,59,91.3,"北京大学（昌平新校区）, 昌流路, 北小营村, 昌平区, 北京市, 中国",116.15722,40.17336535
12,13,University of Pennsylvania,US,United States,96.5,29,92.5,45,99.9,23,70.9,142,96.2,128,66.1,215,93.3,104,100,5,90.6,"University of Pennsylvania, Walnut Street, Powelton Village, Philadelphia, Pennsylvania, 19104, United States",-75.189644,39.9493382
13,14,Tsinghua University,CN,China (Mainland),98.9,17,97.7,23,92.8,72,98.1,24,16.7,601+,25.7,462,75.5,381,87.1,80,90.1,"清华大学, 30, 双清路, 清华园, 清华园街道, 东升镇, 海淀区, 北京市, 100084, 中国",116.320963,40.00229045
14,15,The University of Edinburgh,UK,United Kingdom,98,26,97.2,24,81.1,129,70.1,149,98.9,98,99.5,38,98.7,15,54.3,219,89.5,"Peffermill Playing Fields (University of Edinburgh), Gilmerton/Inch, City of Edinburgh, Alba / Scotland, United Kingdom",-3.154526586,55.929945
15,16,EPFL,CH,Switzerland,83.7,59,71.8,93,91.1,82,99.4,15,100,17,100,11,87.3,207,28,451,89.2,"École Polytechnique Fédérale de Lausanne, Allée de Savoie, Quartier Sorge, Ecublens, District de l'Ouest lausannois, Vaud, 1025, Schweiz/Suisse/Svizzera/Svizra",6.566561505,46.5186594
16,17,Princeton University,US,United States,99.9,10,98.9,14,72.6,172,100,3,26,515,62.2,226,78.5,340,100,8,89.2,"Princeton University, Howe Circle, Riverside Area, Princeton, Mercer County, New Jersey, 08540, United States",-74.65836549,40.33867515
17,18,Yale University,US,United States,99.9,9,100,7,100,2,51.5,249,89.2,179,77.3,165,92,123,100,4,89,"Yale University, West Haven, South Central Connecticut Planning Region, Connecticut, 06516, United States",-72.9896696,41.25713055
18,19,"Nanyang Technological University, Singapore (NTU)",SG,Singapore,90.4,42,76.1,81,83.2,120,94.1,49,100,30,74.1,186,89.6,169,84.6,86,88.4,,,
19,20,Cornell University,US,United States,98.3,23,91.4,50,62.2,245,99.3,17,63.9,290,55.3,256,90,161,99.5,19,87.2,"Cornell University, Town of Dryden, Tompkins County, New York, 14850, United States",-76.48008423,42.4529076
20,21,The University of Hong Kong,HK,Hong Kong SAR,97.4,27,62.9,119,84.2,113,72.6,131,100,27,98.7,50,81.1,303,99,23,87,"香港大學 The University of Hong Kong, 薄扶林道 Pok Fu Lam Road, 西環 Sai Wan, 中西區 Central and Western District, 香港島 Hong Kong Island, 香港 Hong Kong, 中国",114.138455,22.28269745
21,22,Columbia University,US,United States,99.7,11,98.1,20,100,12,47.2,282,47.6,369,94.6,85,98.9,14,99.8,11,86.7,"Columbia University, West 116th Street, Manhattan Community Board 9, Manhattan, New York County, City of New York, New York, 10027, United States",-73.96164947,40.80775585
22,23,The University of Tokyo,JP,Japan,100,7,99.7,9,91.9,78,73.3,128,10.4,601+,27.8,448,89.5,174,97.8,33,85.3,"東京大学柏の葉キャンパス駅前サテライト, 4, 若柴, 柏市, 千葉県, 277-8518, 日本",139.9525622,35.89465155
23,24,Johns Hopkins University,US,United States,87.9,49,47.2,198,100,5,87.3,76,63.6,294,82.9,145,97.7,27,95.3,42,85.1,"Johns Hopkins University, 3400, North Charles Street, Charles Village, Baltimore, Maryland, 21218, United States",-76.62185358,39.33020225
24,25,University of Michigan-Ann Arbor,US,United States,98.5,22,91.3,52,88.9,92,62.5,190,71.2,253,33.1,404,96.3,52,96,40,84.4,"University of Michigan, 500, South State Street, Old Fourth Ward, Ann Arbor, Washtenaw County, Michigan, 48109, United States",-83.71003894,42.2942142
25,26,Université PSL,FR,France,74.4,78,97,25,99.8,24,84.1,96,59.7,308,83.6,142,99.7,4,53.9,227,83.8,"Université PSL, 60, Rue Mazarine, Quartier de la Monnaie, Paris 6e Arrondissement, Paris, Île-de-France, France métropolitaine, 75006, France",2.337835674,48.8546859
26,27,"University of California, Berkeley (UCB)",US,United States,100,6,100,6,23.9,599,99.9,10,93.3,155,57.7,248,96.7,45,99.1,21,82.7,"Institute of Buddhist Studies, 2140, Durant Avenue, Downtown Berkeley, Berkeley, Alameda County, California, 94701, United States",-122.266247,37.8665909
27,28,The University of Manchester,UK,United Kingdom,95.1,33,97.7,22,63.1,234,59,207,93.4,152,99.4,41,98.9,13,66.4,158,82.3,"Salford University School of Art & Design, Damask Avenue, Blackfriars, Lower Broughton, Salford, Greater Manchester, England, M3 6EE, United Kingdom",-2.263547284,53.4863381
28,29,Seoul National University,KR,South Korea,98.6,19,97.8,21,87,100,70.3,147,12.2,601+,10.3,601+,79.3,329,97.7,34,82.2,"서울 대학교 시흥 스마트 캠퍼스-호텔, 배곧동, 배곧2동, 시흥시, 경기도, 15011, 대한민국",126.7168618,37.36512945
29,30,The Australian National University,AU,Australia,93.6,35,70.1,95,38,404,99.3,16,100,37,96,71,94.6,86,59.1,192,82.1,"University of Technology Sydney, Central Park Avenue, Chippendale, Sydney, Council of the City of Sydney, New South Wales, 2008, Australia",151.2003669,-33.88321735
30,31,McGill University,CA,Canada,93.3,36,93.6,39,68.9,193,59.6,203,87.6,188,95.1,77,95.2,69,90,72,81.9,"McGill University, Chemin Olmsted, Ville-Marie, Montréal, Agglomération de Montréal, Montréal (région administrative), Québec, H2W 1S4, Canada",-73.5791909,45.50701415
31,32,Northwestern University,US,United States,84.4,56,71.9,92,98.3,45,84.2,95,40.5,401,38.8,351,89,183,98.4,29,81.8,"Northwestern University, 633, Clark Street, Downtown, Evanston, Evanston Township, Cook County, Illinois, 60208, United States",-87.67529455,42.0557157
32,33,The University of Melbourne,AU,Australia,98.6,20,94.9,34,17.9,601+,95,45,93.1,157,99.8,30,97.6,30,91.1,63,81.6,"The University of Melbourne, Parkville Campus, Grattan Street, Parkville, Melbourne, City of Melbourne, Victoria, 3010, Australia",144.9614459,-37.7960951
33,34,Fudan University,CN,China (Mainland),83.6,60,93.5,40,89.3,88,70.4,146,89.3,178,38.7,355,70.6,457,65.7,164,81.5,"复旦大学, 220, 邯郸路, 五角场街道, 杨浦区, 上海市, 200433, 中国",121.4980876,31.30116485
34,35,University of Toronto,CA,Canada,99.6,12,98.3,18,65.6,219,43.5,313,95.8,132,95.7,74,96.7,46,94,45,81.5,"University of Toronto, Linda Frum and Howard Sokolowski Plaza, Bloor Street Culture Corridor, University—Rosedale, Old Toronto, Toronto, Golden Horseshoe, Ontario, M5S 2E5, Canada",-79.39775966,43.663462
35,36,Kyoto University,JP,Japan,98.6,21,98.9,15,94.8,62,54.2,234,14.9,601+,22.1,503,85.5,233,56.9,201,81.4,"京都大学, 東大路通;京都市道181号京都環状線, 聖護院山王町, 左京区, 京都市, 京都府, 606-8391, 日本",135.7798129,35.0234513
36,37,King's College London,UK,United Kingdom,88.8,47,83.2,66,74.5,162,60.5,198,98.6,104,100,21,99.3,8,56.9,200,81.2,"King's College London (Waterloo Campus), Cornwall Road, South Bank, Waterloo, London Borough of Lambeth, London, Greater London, England, SE1 9PU, United Kingdom",-0.112158295,51.5060001
37,38,The Chinese University of Hong Kong (CUHK),HK,Hong Kong SAR,87.3,51,49.6,177,60.9,250,92.9,53,100,58,90.5,108,74.9,398,79.4,108,80.6,"香港中文大學 The Chinese University of Hong Kong, 39區路 Area 39 Drive, 白石角 Pak Shek Kok, 大埔區 Tai Po District, 新界 New Territories, 香港 Hong Kong, 中国",114.2079145,22.4201838
38,39,New York University (NYU),US,United States,95.9,32,99,13,98.1,48,28.9,440,31.3,463,94.4,87,92,122,99.7,13,80.3,"New York University, West 4th Street, Washington Square Village, Manhattan Community Board 2, Manhattan, New York County, City of New York, New York, 10014, United States",-73.99507565,40.72914525
39,40,The Hong Kong University of Science and Technology,HK,Hong Kong SAR,82,64,50.1,172,62.6,239,98.6,20,100,20,87.9,121,56.2,601+,91.2,61,79.8,"香港科技大學 The Hong Kong University of Science and Technology, 大學道 University Road, 碧水新村 Pik Shui San Tsuen, 大埔仔 Tai Po Tsai, 西貢區 Sai Kung District, 新界 New Territories, 香港 Hong Kong, 中国",114.2659088,22.3358031
40,41,The University of Sydney,AU,Australia,96.2,30,91.7,49,15.6,601+,92.1,56,99.3,84,100,12,97.3,34,90.8,65,79.6,"The University of Sydney, Chapman Steps, Forest Lodge, Inner West, Sydney, Council of the City of Sydney, New South Wales, 2006, Australia",151.1894143,-33.88888125
41,42,KAIST - Korea Advanced Institute of Science & Technology,KR,South Korea,88.1,48,85.8,60,68.9,192,97.7,27,23.1,542,12.3,601+,65.2,505,63.2,178,79.3,"한국과학기술원 서울캠퍼스, 회기로, 청량리동, 동대문구, 서울, 02454, 대한민국",127.046716,37.59379745
42,43,Zhejiang University,CN,China (Mainland),72.2,82,95.3,31,78.7,146,88.4,72,99.1,88,42.5,325,80.8,309,42.3,307,79.3,"浙江大学（海宁校区）, 718号, 海州东路, 鹃湖科技城, 硖石街道, 海宁市, 嘉兴市, 浙江省, 314400, 中国",120.7195312,30.521595
43,44,"University of California, Los Angeles (UCLA)",US,United States,100,8,99.9,8,37.7,410,85.9,87,45.1,377,27.5,450,96.3,53,98,31,78.7,"University of California, Los Angeles, Thayer Avenue, Holmby Hills, Westwood, Los Angeles, Los Angeles County, California, 90095, United States",-118.4468507,34.07087775
44,45,The University of New South Wales (UNSW Sydney),AU,Australia,89,46,91.1,53,16.8,601+,97.6,28,100,50,99.8,31,98.2,17,93,51,78,,,
45,46,Shanghai Jiao Tong University,CN,China (Mainland),82.7,61,90.2,54,57.7,269,97.1,31,40.9,400,38.4,357,73.9,412,57.8,194,77.4,"上海交通大学（徐汇校区）, 淮海西路, 塘子泾, 徐家汇街道, 徐汇区, 上海市, 200030, 中国",121.4283949,31.20089115
46,47,University of British Columbia,CA,Canada,98,25,95.4,30,56.5,275,42.1,332,89,180,74.9,181,97.9,24,75.2,119,77,"University of British Columbia, Electoral Area A, Metro Vancouver Regional District, British Columbia, Canada",-123.246242,49.25783145
47,48,Institut Polytechnique de Paris,FR,France,45.3,180,99.4,11,98.9,41,94,49,97,124,98.2,56,94.8,78,99.8,12,76.8,"Institut Polytechnique de Paris, Avenue René Descartes, Les Joncherettes, Palaiseau, Essonne, Île-de-France, France métropolitaine, 91120, France",2.214106819,48.7139028
48,49,Technical University of Munich,DE,Germany,84,57,96.8,26,96.4,57,25.8,482,70.3,255,95,80,91.8,125,37.5,347,76.4,"Technische Universität München, Lichtenbergstraße, Hochschul- und Forschungszentrum, Garching bei München, Landkreis München, Bayern, 85748, Deutschland",11.66934561,48.2655696
49,50,Duke University,US,United States,86.1,53,79.8,71,100,10,41.2,345,20.2,581,55.1,257,95.5,63,98.6,27,74.8,"Duke University, Wannamaker Drive, Durham, Durham County, North Carolina, 27708, United States",-78.94422972,36.0001557
50,51,The University of Queensland,AU,Australia,86.6,52,75.6,83,20.2,601+,90.8,62,100,36,100,19,94.6,85,41.8,311,74.8,"The University of Queensland, Hawken Drive, St Lucia, Greater Brisbane, Queensland, 4072, Australia",153.0131696,-27.49741805
51,52,Carnegie Mellon University,US,United States,72.1,83,69,101,58.6,267,100,8,38.2,414,97.1,66,88.7,188,85.3,83,74.6,"Carnegie Mellon University, South Craig Street, Schenley Farms Historic District, North Oakland, Pittsburgh, Allegheny County, Pennsylvania, 15213, United States",-79.94271918,40.4441897
52,53,"University of California, San Diego (UCSD)",US,United States,90,45,61.6,123,55.6,280,77,118,54.9,333,53.7,267,96.9,40,21.2,560,74.5,"University of California, San Diego, 9500, Gilman Drive, San Diego, San Diego County, California, 92093, United States",-117.2311247,32.87924375
53,54,City University of Hong Kong,HK,Hong Kong SAR,57.3,130,29.4,328,88.6,93,98.1,25,100,16,100,15,55.1,601+,57.2,198,73.6,"香港城市大學 City University of Hong Kong, 大坑東道 Tai Hang Tung Road, 大坑東 Tai Hang Tung, 石硤尾 Shek Kip Mei, 深水埗區 Sham Shui Po District, 九龍 Kowloon, 香港 Hong Kong, 000000, 中国",114.1697166,22.3400204
54,55,Tokyo Institute of Technology (Tokyo Tech),JP,Japan,74.1,80,93.4,42,81.5,126,65.9,168,36.1,433,37.9,362,55.8,601+,33.6,377,72.5,,,
55,56,The London School of Economics and Political Science (LSE),UK,United Kingdom,69,91,98.3,17,37.8,408,84.6,93,100,32,100,8,67.6,487,99.9,10,72.3,,,
56,57,Monash University,AU,Australia,87.6,50,80.8,68,11.2,601+,79.3,113,100,48,100,18,95.1,75,56.8,202,71.6,"Monash University (Caulfield campus), Dandenong Road, Malvern East, Melbourne, City of Stonnington, Victoria, 3145, Australia",145.0449669,-37.8774234
57,58,University of Amsterdam,NL,Netherlands,82.7,62,42.3,223,26.7,562,97.3,29,92.3,161,80.7,152,97.2,35,51.4,241,71.1,"Universiteit van Amsterdam, Voetboogstraat, Centrum, Amsterdam, Noord-Holland, Nederland, 1012 XR, Nederland",4.889804156,52.36813335
58,59,Ludwig-Maximilians-Universität München,DE,Germany,92.6,37,75.7,82,56,278,45.5,296,64.2,287,38.8,352,94.7,84,39.3,333,70.4,"Ludwig-Maximilians-Universität, 1, Geschwister-Scholl-Platz, Universität, Maxvorstadt, München, Bayern, 80539, Deutschland",11.57983565,48.15047575
59,60,Sorbonne University,FR,France,90,44,41.7,225,40.6,387,86.3,86,28.3,496,54.7,262,99.6,5,60.9,187,70.1,"Sorbonne Université - Faculté des Sciences et Ingénierie, Rue Cuvier, Quartier Saint-Victor, Paris 5e Arrondissement, Paris, Île-de-France, France métropolitaine, 75005, France",2.357448653,48.8468997
60,61,Delft University of Technology,NL,Netherlands,71.6,87,80.2,69,34.5,447,84.4,94,100,64,83.7,141,95.9,60,64,172,70,"Technische Universiteit Delft, Nieuwelaan, Binnenstad, Delft, Zuid-Holland, Nederland, 2611 RS, Nederland",4.373960368,51.99882735
61,62,University of Bristol,UK,United Kingdom,74.4,79,84.1,64,58.3,268,55.3,225,90.5,170,84.9,135,93.9,92,59.6,190,70,"University of Bristol, Barrow Gurney, North Somerset, England, BS9 3RZ, United Kingdom",-2.630482498,51.4905582
62,63,Brown University,US,United States,57.6,128,54.2,154,80.8,132,89.9,65,82.8,210,49.8,294,73.6,417,99.6,14,69.6,"Brown University, Eastern Avenue, Providence, Providence County, Rhode Island, 02912, United States",-71.40880087,41.8186395
63,64,The University of Warwick,UK,United Kingdom,71.8,85,89.3,55,43.1,360,63.1,186,98.1,111,99.2,45,93.6,97,62,181,69.1,"Warwick Avenue, University Hills, Los Angeles, Los Angeles County, California, 90032, United States",-118.1661899,34.0734377
64,65,Ruprecht-Karls-Universität Heidelberg,DE,Germany,78.7,72,40.3,230,99.8,26,41.1,346,51.3,348,47.2,307,95.2,70,22.8,531,69,"Neuenheimer Feld, Neuenheim, Heidelberg, Baden-Württemberg, 69120, Deutschland",8.6691206,49.4167814
65,66,The Hong Kong Polytechnic University,HK,Hong Kong SAR,66.1,99,37,257,78.4,147,68.9,151,100,46,80.7,153,74.2,409,49.2,256,69,"香港理工大學 The Hong Kong Polytechnic University, 11, 育才道 Yuk Choi Road, 紅磡灣 Hung Hom Bay, 尖沙咀 Tsim Sha Tsui, 油尖旺區 Yau Tsim Mong District, 九龍 Kowloon, 香港 Hong Kong, 000000, 中国",114.1796935,22.3044867
66,67,Universidad de Buenos Aires (UBA),AR,Argentina,92.3,39,94,37,76,158,1.8,601+,63.7,293,68.9,207,63,533,34.3,371,68.9,"Instituto Leonardo Da Vinci, 2037, Avenida Corrientes, Balvanera, Buenos Aires, Comuna 3, Ciudad Autónoma de Buenos Aires, 1045, Argentina",-58.39602226,-34.60417075
67,68,Osaka University,JP,Japan,80.2,68,85.4,61,67.4,205,59.1,206,25,525,14.4,601+,75.2,385,21,567,68.2,"大阪芸術大学, 東山, 河南町, 南河内郡, 大阪府, 585-8555, 日本",135.631448,34.51119925
68,69,Université Paris-Saclay,FR,France,57.2,131,99.2,12,99.7,28,49.5,266,43.7,387,59.1,243,97.1,37,7.8,601+,68.1,"Université Paris-Saclay, Belvedère, Le Guichet, Orsay, Palaiseau, Essonne, Île-de-France, France métropolitaine, 91400, France",2.1749516,48.7030208
69,70,Universiti Malaya (UM),MY,Malaysia,79.6,70,94.9,35,67.8,200,39.4,355,43.6,388,53,272,91.8,126,41.9,310,67.9,"University of Malaya, Lingkungan Budi, Bangsar, Kuala Lumpur, 50603, Malaysia",101.6555348,3.1257608
70,71,Pohang University of Science And Technology (POSTECH),KR,South Korea,47.4,169,69.4,98,100,15,98,26,34.7,444,2.9,601+,30.9,601+,54.8,215,67.7,"포항공과대학교, 77, 청암로, 효자동, 효곡동, 남구, 포항시, 경상북도, 37673, 대한민국",129.3208556,36.0180795
71,72,University of Texas at Austin,US,United States,93.7,34,85.2,62,9.8,601+,90.9,61,7.6,601+,10.8,601+,90.9,142,71.1,131,67.4,"University of Texas at Austin, 1, Allandale, Austin, Travis County, Texas, 78712, United States",-97.73393515,30.2851494
72,73,Yonsei University,KR,South Korea,75.5,76,95.5,29,88.6,94,28.4,448,19.4,587,51.3,285,63.5,526,68.8,144,67,"연세대학교 신촌캠퍼스, 50, 연세로, 창천동, 신촌동, 서대문구, 서울, 03722, 대한민국",126.9394029,37.56777675
73,74,Korea University,KR,South Korea,79.3,71,93.9,38,86.1,105,29.5,433,14.7,601+,32.9,406,63.1,532,71.8,129,66.9,"University, 도리원길, 노학동, 속초시, 강원특별자치도, 대한민국",128.5608433,38.1920544
74,75,Lomonosov Moscow State University,RU,Russia,80.5,67,77,78,99.8,27,5.3,601+,19.2,589,91.9,103,87.5,204,91.2,62,66.8,"Московский государственный университет им. М. В. Ломоносова, район Хамовники, Москва, Центральный федеральный округ, 119234, Россия",37.53179773,55.70229715
75,76,KU Leuven,BE,Belgium,83.8,58,53,156,7.7,601+,92.7,54,91.9,164,43.3,320,99.1,11,44.8,283,66,"KU Leuven Kulak, Etienne Sabbelaan, Hoog Kortrijk, Kortrijk, West-Vlaanderen, Vlaanderen, 8500, België / Belgique / Belgien",3.291537449,50.80571285
76,77,National Taiwan University (NTU),TW,Taiwan,92.3,38,92.6,44,33.4,461,49.7,262,19,591,32.6,412,75,393,96.7,37,65.7,"國立臺灣大學, 1, 羅斯福路四段, 水源里, 中正區, 公館, 臺北市, 10617, 臺灣",121.538521,25.01688615
77,78,University of Southampton,UK,United Kingdom,50.7,153,56.6,140,63.3,233,82.7,100,96.1,130,93.8,89,96.7,47,42.8,302,65,"University of Southampton, Itchen Bridge, Woolston, Southampton, England, SO19 2DP, United Kingdom",-1.396284749,50.9354752
78,79,Tohoku University,JP,Japan,71.8,86,78.1,75,98.6,43,34.2,401,14.1,601+,16.4,595,66.8,493,18.7,601+,64.9,"東北大学 川内北キャンパス, 川内亀岡北裏丁, 青葉区, 仙台市, 宮城県, 980-8576, 日本",140.8515902,38.26035555
79,80,University of Washington,US,United States,84.8,55,48.6,183,10.8,601+,100,7,32.5,458,36,384,97.6,29,84.1,89,64.7,"University of Washington, 36th Avenue Northeast, Ravenna, Seattle, King County, Washington, 98105, United States",-122.3027224,47.65562275
80,81,University of Glasgow,UK,United Kingdom,75.1,77,75.1,85,50.5,311,34.7,394,95.5,134,98.9,49,94.7,81,29.4,430,64.6,"University of Glasgow, Prince of Wales Bridge, Kelvingrove, Glasgow, Glasgow City, Alba / Scotland, G12 8NS, United Kingdom",-4.289219113,55.87231535
81,82,University of Copenhagen,DK,Denmark,72.8,81,36.6,261,100,17,26,476,91.3,166,24.5,473,99.1,10,58.2,193,64.1,"Københavns Universitet, Frue Plads, Indre By, København, Københavns Kommune, Region Hovedstaden, 1168, Danmark",12.572327,55.6801502
82,83,University of Wisconsin-Madison,US,United States,82.4,63,48.1,188,70.6,184,41.9,333,37.7,421,23.8,482,93.2,105,84.6,87,63.7,"University of Wisconsin-Madison, Howard Place, State-Langdon, Madison, Dane County, Wisconsin, 53703, United States",-89.43095872,43.08027445
83,84,University of Zurich,CH,Switzerland,58,124,39.2,238,93.3,68,49.3,268,100,57,55.5,255,93.5,98,77.8,114,63.7,"Zürcher Hochschule für Angewandte Wissenschaften, Mühlestrasse, Wildbach, Stadt, Winterthur, Bezirk Winterthur, Zürich, 8402, Schweiz/Suisse/Svizzera/Svizra",8.729807168,47.49684345
84,85,University of Illinois at Urbana-Champaign,US,United States,85.6,54,60.9,126,9.5,601+,88.7,71,20.3,578,46.4,309,92.2,118,70,135,63.6,,,
85,86,University of Leeds,UK,United Kingdom,70.2,88,78.4,74,41.6,376,47.8,276,86.3,195,86.5,129,97.8,26,42.9,300,62.8,"University of Leeds, Lyddon Terrace, Hyde Park, Leeds, West Yorkshire, England, LS2 9LQ, United Kingdom",-1.55628775,53.80677435
86,87,The University of Auckland,NZ,New Zealand,81.5,65,48.3,186,22.4,601+,54.1,235,99.9,71,92.4,102,87.2,208,79.2,110,62.7,"University of Auckland Te Tai Tokerau Campus, Alexander Street, Vinetown, Whangārei, Whangarei District, Northland, 0110, New Zealand / Aotearoa",174.3180744,-35.72170635
87,88,Georgia Institute of Technology,US,United States,67.7,97,77,77,11.1,601+,95.5,44,62.9,299,54.8,260,78.5,341,63.5,176,62.3,"Georgia Tech, PATH Parkway, Atlanta, Fulton County, Georgia, 30332, United States",-84.39884086,33.776033
88,89,KTH Royal Institute of Technology ,SE,Sweden,45.8,178,58.2,136,70,186,76.4,123,97.1,123,70.2,199,89.9,164,81.4,100,62.1,"KTH - Royal Institute of Technology (Södertälje), 12, Kvarnbergagatan, Tälje, Södertälje, Södertälje kommun, Stockholms län, 151 36, Sverige",17.6203201,59.2016758
89,90,The University of Western Australia,AU,Australia,55.6,137,49.9,175,21.8,601+,98.9,19,100,28,99.9,23,98.2,16,65,167,61.7,"The University of Western Australia, 33, Stirling Terrace, Albany, City Of Albany, Western Australia, 6330, Australia",117.8874729,-35.0277407
90,91,University of Birmingham,UK,United Kingdom,66,100,74.7,86,44.1,349,45.9,295,91,168,87.4,122,95.1,73,37.6,344,61.1,"The Teaching and Learning Building, Edgbaston Park Road, Bournbrook, Metchley, Birmingham, West Midlands Combined Authority, England, B15 2TT, United Kingdom",-1.931285673,52.4522956
91,92,Durham University,UK,United Kingdom,57.9,125,89.2,56,31,501,65.7,174,97.2,122,87.2,123,89.1,182,43.6,295,60.9,"North Carolina Central University, East Lawson Street, Durham, Durham County, North Carolina, 27707, United States",-78.89755054,35.97320905
92,93,Pennsylvania State University,US,United States,76.7,75,69.8,97,32.6,473,67.7,162,25.3,523,31,421,96.8,44,44.8,282,60.8,,,
93,94,University of Science and Technology of China,CN,China (Mainland),51.6,147,12.4,501+,86.6,103,99.9,12,18.7,596,5.7,601+,67,491,37.6,345,60.7,"中国科学技术大学（北校区）, 黄山路, 安徽省电力公司黄山路生活区, 三里庵街道, 蜀山区, 合肥市, 安徽省, 230022, 中国",117.2635124,31.84541665
94,95,Lund University,SE,Sweden,68.8,92,50.9,163,51.3,307,41.4,341,95.8,133,76.6,173,97.6,28,64.9,168,60.1,"Universitetshuset, 2, Paradisgatan, Stadskärnan, Centrum, Lund, Lunds kommun, Skåne län, 222 22, Sverige",13.19334082,55.70582245
95,96,The University of Sheffield,UK,United Kingdom,58.7,122,53.5,155,59.4,264,46.9,284,85.3,199,97.8,61,94.7,79,33.7,376,59.5,"University of Sheffield, Upper Hanover Street, Saint George's, Broomhall, Sheffield, South Yorkshire, England, S10 2GZ, United Kingdom",-1.4840345,53.3806759
96,97,University of St Andrews,UK,United Kingdom,46.2,175,67.6,106,61.1,249,58.9,209,98.8,100,99.7,35,83.4,265,44.1,292,59.5,"University of St Andrews, North Street, St Andrews, Fife, Alba / Scotland, KY16 9AJ, United Kingdom",-2.811793705,56.3398198
97,98,"Trinity College Dublin, The University of Dublin",IE,Ireland,67.9,95,48.2,187,25.7,573,60.2,199,99.8,73,93.3,92,87.3,206,97.9,32,59.1,,,
98,99,Sungkyunkwan University(SKKU),KR,South Korea,60.2,115,72.7,90,83.9,115,37.8,368,18.9,592,38.7,354,58.8,582,33.9,375,58.9,"성균관대학교 인문사회과학캠퍼스, 25-2, 성균관로, 명륜2가, 혜화동, 종로구, 서울, 03063, 대한민국",126.9906264,37.5870459
99,100,Rice University,US,United States,38.8,218,26.1,366,69.5,189,86.7,82,90,174,92.6,100,57.2,601+,70.7,133,58.8,"Rice University, 6100, Main Street, Houston, Harris County, Texas, 77005, United States",-95.40478113,29.71679145
100,101,University of Oslo,NO,Norway,54.9,141,14.5,501+,83.8,117,62.7,187,86.2,196,27.5,449,97.9,25,65.7,163,58.7,"Universitetet i Oslo, Gustav Heibergs vei, Ullevål hageby, Nordre Aker, Oslo, 0852, Norge",10.72276834,59.9414173
101,102,"University of California, Davis",US,United States,64.8,105,51,162,27.1,559,68.7,153,84.7,204,70.2,198,90.2,155,25,488,58.2,"UC Davis West Campus, Lake Boulevard, West Davis, Davis, Yolo County, California, 95616, United States",-121.7907989,38.53379035
102,103,"University of North Carolina, Chapel Hill",US,United States,65.5,102,44.7,210,80.4,135,46.6,287,27.2,507,10,601+,90,160,67.4,152,58.2,"University of North Carolina, Quail Hill Loop, Chapel Hill, Orange County, North Carolina, 27599, United States",-79.04775327,35.90503535
103,104,Technical University of Denmark,DK,Denmark,30.9,273,23.4,411,100,20,70.8,143,100,59,77.2,166,91.2,138,68.3,147,58,"Danmarks Tekniske Universitet, Helsingørmotorvejen, Hjortekær, Kongens Lyngby, Lyngby-Taarbæk Kommune, Region Hovedstaden, 2800, Danmark",12.52021514,55.78541445
104,105,Universidad Nacional Autónoma de México (UNAM),MX,Mexico,96,31,95.1,32,43.2,358,2.9,601+,9.3,601+,2.6,601+,91.3,136,61.5,184,58,"Centros e Institutos de Humanidades, Circuito Maestro Mario de la Cueva, Colonia Torres de Maurel, Coyoacán, Ciudad Universitaria, Ciudad de México, 04510, México",-99.1803953,19.3152928
105,106,King Abdulaziz University (KAU),SA,Saudi Arabia,48.4,167,70.7,94,66.3,215,50.6,256,99,94,54.3,263,93.4,102,10.5,601+,57.8,,,
106,107,University of Helsinki,FI,Finland,65.3,103,44.6,212,66.5,212,49.8,261,67.9,269,5.8,601+,95.2,67,62.5,180,57.8,"Helsingin yliopisto, Siltavuorenranta, Kaisaniemi, Kruununhaka, Eteläinen suurpiiri, Helsinki, Helsingin seutukunta, Uusimaa, Etelä-Suomen aluehallintovirasto, Manner-Suomi, 00530, Suomi / Finland",24.95355002,60.1756483
107,108,Boston University,US,United States,62.3,110,57.2,139,40.4,388,61.6,195,33.7,449,83.3,144,86.9,212,80.5,103,57.2,"Boston University, Freeman Street, North Brookline, Boston, Norfolk County, Massachusetts, 02215, United States",-71.10170123,42.3504324
108,109,The University of Adelaide,AU,Australia,52.3,146,35.2,279,17.2,601+,94.5,46,99.8,76,99.8,28,93.1,108,40.2,325,57,,,
109,110,University of Alberta,CA,Canada,55.1,139,48.9,181,51.5,305,53.9,237,95.3,135,76.9,171,96.1,57,41,318,56.9,"University of Alberta, HUB Traverse, River Valley Walterdale, Greater Strathcona, Edmonton, Division No. 11, Alberta, T5J 2R7, Canada",-113.5244937,53.52682
110,111,École Normale Supérieure de Lyon,FR,France,31.8,265,12.6,501+,94.3,63,96.4,36,66,282,17.4,572,70.1,461,44.3,289,56.6,"École primaire privée Internationale Le Petit Monde, Rue André Bollier, Le Bon Lait, Gerland, Lyon 7e Arrondissement, Lyon, Métropole de Lyon, Rhône, Auvergne-Rhône-Alpes, France métropolitaine, 69007, France",4.834237899,45.7351388
111,112,Nagoya University,JP,Japan,59.8,117,54.3,153,90.6,84,33.9,403,15.8,601+,20,536,66.5,499,35.1,367,56.3,"名古屋大学（医学部）, 公園線支線第9号, 鶴舞町, 昭和区, 名古屋市, 愛知県, 中部地方, 466-8555, 日本",136.9219146,35.1583416
112,113,Utrecht University,NL,Netherlands,65.8,101,26.6,361,35.1,443,79.6,112,58.3,312,23.1,489,94.7,83,42.5,305,56.3,"Academiegebouw, Trans, Binnenstad, Utrecht, Nederland, 3512 JK, Nederland",5.12251086,52.09026055
113,114,University of Nottingham,UK,United Kingdom,59,120,75.3,84,36.9,421,45.2,298,90.3,173,76.7,172,98.1,19,32.5,391,56.2,"University of Nottingham, University Boulevard, Dunkirk, City of Nottingham, England, NG7 2RD, United Kingdom",-1.200295693,52.9387428
114,115,Universidade de São Paulo,BR,Brazil,91.8,41,69.9,96,17.4,601+,40.6,348,7.6,601+,2.7,601+,94.7,82,78.9,113,56.1,"Universidade de São Paulo (Portaria 1), Ciclovia Avenida Afrânio Peixoto, Butantã, São Paulo, Região Imediata de São Paulo, Região Metropolitana de São Paulo, Região Geográfica Intermediária de São Paulo, São Paulo, Região Sudeste, 05507-000, Brasil",-46.71258298,-23.5652201
115,116,Aalto University,FI,Finland,44.5,187,45.8,207,44.4,347,89.3,68,94.9,139,35.6,387,90.3,154,79.8,106,55.9,"Aalto-yliopisto, 24, Otakaari, Kivimies, Otaniemi, Suur-Tapiola, Espoo, Helsingin seutukunta, Uusimaa, Etelä-Suomen aluehallintovirasto, Manner-Suomi, 02150, Suomi / Finland",24.82810207,60.1860789
116,117,Université de Montréal ,CA,Canada,57.4,129,47.2,197,76.2,157,27.6,455,89.5,176,53.7,266,86,224,19.3,601+,55.9,"Université de Montréal, 2900, Boulevard Édouard-Montpetit, Côte-des-Neiges, Côte-des-Neiges–Notre-Dame-de-Grâce, Montréal, Agglomération de Montréal, Montréal (région administrative), Québec, H3T 1J4, Canada",-73.61454176,45.50475765
117,118,Freie Universitaet Berlin,DE,Germany,80.7,66,44.9,209,4,601+,63.5,183,63,298,42,328,91.9,124,33.3,383,55.8,"Freie Universität Berlin, Hechtgraben, Dahlem, Steglitz-Zehlendorf, Berlin, 14195, Deutschland",13.29627401,52.4549616
118,119,Washington University in St. Louis,US,United States,40.1,210,15.3,501+,99.9,22,55.6,221,82.4,212,55.1,258,84.9,243,71,132,55.8,"Washington University in St. Louis, Forest Park Parkway, University City, Saint Louis County, Missouri, 63130, United States",-90.30840173,38.64724015
119,120,University of Bern,CH,Switzerland,30.3,283,35.5,277,64.9,223,98.3,22,100,41,41.9,329,95.3,66,18.4,601+,55.7,"Universität Bern, Einsteinterrasse, Länggasse, Stadtteil II, Bern, Verwaltungskreis Bern-Mittelland, Verwaltungsregion Bern-Mittelland, Bern/Berne, 3012, Schweiz/Suisse/Svizzera/Svizra",7.438684131,46.95097255
120,121,Pontificia Universidad Católica de Chile (UC),CL,Chile,91.8,40,98.1,19,22.3,601+,12.5,601+,17.9,601+,3.9,601+,82.7,275,90.4,70,54.9,,,
121,122,Newcastle University,UK,United Kingdom,46.2,176,83.8,65,39.1,398,58.9,211,84.8,203,75.6,178,96.9,39,14.9,601+,54.8,"Newcastle University, Saint Mary's Place, Haymarket, Newcastle upon Tyne, North of Tyne, England, NE1 7RU, United Kingdom",-1.614680213,54.98017505
122,123,Universiti Putra Malaysia (UPM),MY,Malaysia,56.8,132,59.2,130,75.4,160,19.5,565,44.2,383,92.7,99,85,240,6.2,601+,54.7,"Department of Biology, Faculty of Science, Universiti Putra Malaysia, Jalan Bougainvilla, Seri Serdang, Subang Jaya, Petaling, Selangor, 43400, Malaysia",101.704621,3.0014569
123,124,Wageningen University & Research,NL,Netherlands,42.8,193,17,501+,97.4,52,48.2,275,50.5,349,76.4,175,96.9,43,18.8,601+,54.6,"Wageningen University & Research, Nijenoord Allee, Wageningen, Gelderland, Nederland, 6708 PG, Nederland",5.663212001,51.98544495
124,125,Chalmers University of Technology,SE,Sweden,27.9,305,60.7,128,60.5,255,81.6,104,100,53,72.4,190,84.1,256,22.5,538,54.5,"Chalmers Tekniska Högskola, Djurgårdsplatsen, Stigberget, Centrum, Göteborg, Göteborgs Stad, Västra Götalands län, 412 58, Sverige",11.97652929,57.6897462
125,126,Queen Mary University of London,UK,United Kingdom,48.9,163,36.2,267,42.8,363,62.6,188,99.7,81,99.5,40,93.7,96,13.8,601+,54.5,"Queen Mary University of London, Mile End Road, Globe Town, Mile End, London Borough of Tower Hamlets, London, Greater London, England, E1 4NS, United Kingdom",-0.03930652,51.5247272
126,127,University of Geneva,CH,Switzerland,46.5,174,20,463,44.8,345,74,127,100,39,96.7,68,92.8,110,45.9,276,54.5,"New York State Agricultural Experiment Station, Warehouse driveway, City of Geneva, Ontario County, New York, 14456, United States",-77.00824668,42.8759775
127,128,Uppsala University,SE,Sweden,63.6,107,27.4,351,43.4,357,43.4,314,95.3,137,74.7,182,97.1,36,48.5,263,54.3,"Kvarteret Munken, Västra Ågatan, Vaksalastaden, Centrum, Uppsala, Uppsala kommun, Uppsala län, 753 22, Sverige",17.63976028,59.85529295
128,129,Purdue University,US,United States,62.7,109,73.1,88,11.7,601+,70.9,141,51.7,345,48.4,300,92.2,119,63.8,173,54.2,"Purdue University, 610, West Lafayette, Tippecanoe County, Indiana, 47907, United States",-86.92642115,40.430028
129,130,Universiti Kebangsaan Malaysia (UKM),MY,Malaysia,57.9,126,62,122,93.1,70,9.4,601+,42.8,393,38.7,353,76.5,369,5.6,601+,54.2,"Universiti Kebangsaan Malaysia, Jalan Bangi, Bangi Lama, Majlis Perbandaran Kajang, Hulu Langat, Selangor, 43600, Malaysia",101.7812216,2.92408085
130,131,Humboldt-Universität zu Berlin,DE,Germany,90.1,43,55.6,144,8.7,601+,29.5,434,58.1,314,33.9,397,91.4,133,26,476,54.1,"Humboldt-Universität zu Berlin, 6, Unter den Linden, Dorotheenstadt, Mitte, Berlin, 10117, Deutschland",13.39292023,52.5183402
131,132,Leiden University,NL,Netherlands,68.1,94,23.4,409,22.2,601+,65.8,169,85.1,202,47.2,308,94.7,80,30,416,54.1,"Universiteit Leiden, Clusiusplaats, Academiewijk, Leiden, Zuid-Holland, Nederland, 2311 WJ, Nederland",4.485216804,52.1572025
132,133,Nanjing University,CN,China (Mainland),57.7,127,17.7,501+,32.3,478,96.1,39,54,337,8.2,601+,74.9,400,29.6,423,53.9,"南京大学, 汉口路, 湖南路街道, 鼓楼区, 南京市, 江苏省, 210093, 中国",118.7740883,32.0565957
133,134,University of Southern California,US,United States,54.6,142,59.1,131,28.4,535,71.7,138,36.1,434,77.4,164,89.2,180,94.8,44,53.7,"University of Southern California, South Figueroa Street, Historic South-Central, Los Angeles, Los Angeles County, California, 90007, United States",-118.2858666,34.0218833
134,135,Kyushu University,JP,Japan,56.6,133,65,113,84.9,110,26.8,466,15.1,601+,20.7,530,66.1,502,22.4,543,53.5,"九州看護福祉大学（看護福祉学部）, 玉名バイパス, 立願寺, 玉名市, 熊本県, 865-0005, 日本",130.553603,32.94739665
135,136,University of Basel,CH,Switzerland,28,304,26.8,357,53.8,293,95.7,43,100,31,84.1,138,90.1,158,52.7,233,53.3,"Universität Basel, Pruntruterstrasse, Gundeldingen, Grossbasel, Basel, Basel-Stadt, 4002, Schweiz/Suisse/Svizzera/Svizra",7.582855137,47.56174235
136,137,University of Technology Sydney,AU,Australia,41.8,199,66.1,110,9.6,601+,90.4,63,94.6,142,97.6,63,89.5,176,39.9,326,53.2,"University of Technology Sydney, Central Park Avenue, Chippendale, Sydney, Council of the City of Sydney, New South Wales, 2008, Australia",151.2003669,-33.88321735
137,138,Eindhoven University of Technology,NL,Netherlands,28.9,296,72.8,89,50.5,312,78.2,116,100,45,56.9,251,72.3,436,45.1,279,52.7,"Technische Universiteit Eindhoven, 2, De Rondom, Centrum, Eindhoven, Noord-Brabant, Nederland, 5600 MB, Nederland",5.490399566,51.4486602
138,139,Politecnico di Milano,IT,Italy,67.8,96,76.8,80,5.4,601+,53.5,239,57.5,319,54.3,264,87.8,200,39.7,328,52.4,"Politecnico di Milano (PC), Via Gianbattista Scalabrini, Baia del Re, Piacenza, Emilia-Romagna, 29100, Italia",9.702161106,45.04828255
139,140,The Ohio State University,US,United States,61.1,113,62.2,121,51.1,308,34.6,396,63,297,16.2,600,96.5,49,41.9,309,52,"The Ohio State University, 281, West Lane Avenue, Carmenton, Columbus, Sharon, Franklin County, Ohio, 43210, United States",-83.0286628,40.00570905
140,141,Hokkaido University,JP,Japan,55.6,136,60.7,127,77.8,151,30,430,18.3,601+,17.2,574,72.8,429,16.7,601+,51.9,"北海道大学, 新川通, 北二十一条西十三丁目, 北21条西13, 北区, 札幌市, 石狩振興局, 北海道, 060-0808, 日本",141.3377295,43.07900775
141,142,"KIT, Karlsruhe Institute of Technology",DE,Germany,44.7,185,67.7,105,33.3,462,72,133,68.6,266,50.6,288,89.6,171,54.3,220,51.9,,,
142,143,Ghent University,BE,Belgium,54,144,30.1,323,83.2,121,26.9,465,72.5,250,21.4,520,99.1,12,24.8,494,51.6,"Sint-Lucas Gent - Sint-Niklaasstraat, Bennesteeg, Portus aan de Reep, Gent, Oost-Vlaanderen, Vlaanderen, 9000, België / Belgique / Belgien",3.723494786,51.0528112
143,144,Universiti Sains Malaysia (USM),MY,Malaysia,59.7,118,66.6,108,65.2,220,13.4,601+,25.4,522,75.3,179,79.6,327,6,601+,51.6,"J13 School of Pharmaceutical Sciences, USM, School of Pharmaceutical Sciences, Lengkok Teknologi, Sungai Dua, Timur Laut, Pulau Pinang, 11800, Malaysia",100.2982463,5.35720425
144,145,University of Groningen,NL,Netherlands,51.6,148,21.6,431,54.4,286,42.2,330,93.4,151,86.9,124,96.3,54,20.9,569,51.4,"Rijksuniversiteit Groningen, Oude Boteringestraat, Binnenstad-noord, Binnenstad, Centrum, Groningen, Nederland, 9712 GC, Nederland",6.562986329,53.21944155
145,146,Lancaster University,UK,United Kingdom,39.6,215,30,325,31.5,492,82.2,103,93.3,154,94.5,86,88.9,186,28.3,448,51.2,"Lancaster University, Scotforth Road, Bowland College, Hala, Bailrigg, Lancaster, Lancashire, England, LA1 4XN, United Kingdom",-2.787572732,54.00975365
146,147,RWTH Aachen University,DE,Germany,49.5,157,88.7,57,5.4,601+,73.3,129,48.3,364,81.1,151,84.1,255,30.8,405,51.1,"RWTH Aachen, Grüner Weg, Aachen-Mitte, Aachen, Städteregion Aachen, Nordrhein-Westfalen, 52070, Deutschland",6.068920971,50.7791645
147,148,University of Rochester,US,United States,23.8,356,20.1,459,99.3,36,55,230,74.9,238,95.1,78,75.1,389,46.5,273,51.1,"University of Rochester, Genesee Valley Park, City of Rochester, Monroe County, New York, 14627, United States",-77.6307297,43.1226985
148,149,"University of California, Santa Barbara (UCSB)",US,United States,55.9,135,24,399,10.6,601+,97.2,30,57.8,317,28.4,444,78.4,343,15.6,601+,50.9,,,
149,150,Al-Farabi Kazakh National University,KZ,Kazakhstan,49.1,159,76.9,79,98.3,46,1.3,601+,30.5,470,34.6,393,35.3,601+,12.3,601+,50.8,"Казахский национальный университет имени аль-Фараби, әл-Фараби даңғылы, Бостандық ауданы, Алматы, 050040, Қазақстан",76.92334833,43.220567
150,151,University of Vienna,AT,Austria,69.4,89,55.3,148,24.2,596,14.1,601+,98.9,96,89.2,112,96.6,48,73,126,50.6,"Universität Wien, 1, Universitätsring, Schottenviertel, Innere Stadt, Wien, 1010, Österreich",16.36068599,48.2131284
151,152,McMaster University,CA,Canada,39.9,212,50.2,170,84.7,112,21.3,535,99.3,85,59.2,241,79.8,324,42.9,301,50.4,"McMaster University, 1280, Main Street West, Ainslie Wood, Hamilton, Golden Horseshoe, Ontario, L8S 3L8, Canada",-79.91782523,43.2639397
152,153,Stockholm University,SE,Sweden,54.5,143,17.7,501+,29.2,525,62.5,189,82,213,77.1,169,97.3,33,69.3,141,50.1,"Kungliga Konsthögskolan, Flaggmansvägen, Skeppsholmen, Norrmalms stadsdelsområde, Stockholms kommun, Solna kommun, Stockholms län, 111 49, Sverige",18.08305021,59.3242703
153,154,University of Waterloo,CA,Canada,40.2,209,77.6,76,7,601+,82.5,101,79,222,82,149,83.6,263,87.7,78,50,"University of Waterloo, Wilmot, Region of Waterloo, Ontario, N2L 3G1, Canada",-80.54524294,43.4701994
154,155,Emory University,US,United States,25.2,336,15.7,501+,99.1,40,68.7,154,50.1,351,31.1,420,87.7,201,44.5,287,49.5,"Emory University, 201, President's Loop Trail, North Decatur, DeKalb County, Georgia, 30322, United States",-84.3172378,33.80045465
155,156,Indian Institute of Science,IN,India,37.6,223,22.9,416,56.3,276,100,1,11.7,601+,1.9,601+,46,601+,14.8,601+,49.5,"Indian Institute of Science, CV Raman Road, Aramane Nagara Ward, West Zone, Bengaluru, Bangalore North, Bengaluru Urban District, Karnataka, 560012, India",77.56718325,13.0222347
156,157,Hanyang University,KR,South Korea,45,182,79.1,73,83.2,119,17.6,588,18.8,594,43.8,315,68,480,33.9,374,49.4,"华中科技大学同济医学院, 宝丰二路, 宝丰街道, 硚口区, 武汉市, 湖北省, 430030, 中国",114.2559349,30.5852554
157,158,Technische Universität Berlin (TU Berlin),DE,Germany,55.1,140,64.9,115,48.5,321,23.6,509,46.1,376,75,180,83.2,268,31.6,397,49.3,"Technische Universität Berlin, Dickhardtstraße, Friedenau, Tempelhof-Schöneberg, Berlin, 12159, Deutschland",13.32695414,52.51101585
158,159,Michigan State University,US,United States,60.5,114,61.4,124,12.9,601+,58.9,210,62.1,303,16.9,584,93.2,107,53.6,229,48.9,"Michigan State University, 426, Auditorium Road, East Lansing, Ingham County, Michigan, 48824, United States",-84.48032838,42.7024238
159,160,King Fahd University of Petroleum & Minerals,SA,Saudi Arabia,30.3,284,24.9,385,88.5,95,50.9,253,100,26,21.8,508,70.2,458,66.7,156,48.8,"جامعة الملك فهد للبترول والمعادن, Khobar Road, الظهران, محافظة الدمام, المنطقة الشرقية, 34453, السعودية",50.15064486,26.3053184
160,161,Aarhus University,DK,Denmark,55.6,138,33.5,291,32.4,476,55.2,226,87.9,184,16.3,598,95.4,65,33.5,380,48.6,"Aarhus Universitet, Holger Drachmanns Vej, Nobelparken, Christiansbjerg, Aarhus, Aarhus Kommune, Region Midtjylland, 8000, Danmark",10.20261769,56.1670905
161,162,University of York,UK,United Kingdom,43.3,191,36.1,268,45,343,48.6,270,88.1,183,82.1,147,88.9,187,23.7,511,48.4,"University of York, Nunmill Street, South Bank, York, England, YO10 5DD, United Kingdom",-1.031459294,53.9453903
162,163,The University of Exeter,UK,United Kingdom,41.1,201,56.1,142,31.5,491,55.3,224,92.3,162,77.7,163,94.8,77,15.9,601+,48.2,,,
163,164,Texas A&M University,US,United States,61.5,112,65,112,5,601+,67.8,161,24.8,527,14.7,601+,91.1,140,36.3,356,47.9,"Texas A&M University, 400, Bizzell Street, College Station, Brazos County, Texas, 77843, United States",-96.35206061,30.6108618
164,165,"University of Maryland, College Park",US,United States,51.2,151,35.6,275,37.1,418,71.1,140,23.8,534,14.9,601+,92.6,112,61.4,185,47.9,"College Park–University of Maryland, 4931, Calvert Road, Old Town, College Park, Prince George's County, Maryland, 20740, United States",-76.9282678,38.9784587
165,166,Cardiff University,UK,United Kingdom,46,177,47.7,191,40.3,390,41.8,336,84.1,207,74.7,183,91.4,132,19.5,599,47.8,"Cardiff University School of Journalism, 2, Central Square, Castle, Cardiff, Cymru / Wales, CF10 1FS, United Kingdom",-3.1803382,51.4764902
166,167,Alma Mater Studiorum - University of Bologna,IT,Italy,78.5,73,43.1,219,3.5,601+,49.7,263,7.8,601+,10.8,601+,95.1,74,40.7,322,47.5,,,
167,168,Universidad de Chile,CL,Chile,80,69,92,47,12.5,601+,13.9,601+,9.4,601+,5.6,601+,77.4,355,42.6,304,47.5,"Universidad de Chile, Avenida Libertador Bernardo O'Higgins, Barrio París-Londres, Santiago, Provincia de Santiago, Región Metropolitana de Santiago, 8331009, Chile",-70.6510174,-33.4439386
168,169,Eberhard Karls Universität Tübingen,DE,Germany,44.7,184,21,440,96.7,55,14.9,601+,67,277,26.1,460,96.5,50,16.6,601+,47.2,"Universität Tübingen, Pfleghofstraße, Lustnauer Tor, Zentrum, Universität, Tübingen, Landkreis Tübingen, Baden-Württemberg, 72070, Deutschland",9.040432301,48.5298981
169,170,Tecnológico de Monterrey,MX,Mexico,48.8,164,92.8,43,72.9,170,2.2,601+,52.9,339,8.6,601+,65.1,508,85.6,82,47.1,"Tecnologico de Monterrey, Puerto Vallarta, Jalisco, 48300, México",-105.2258715,20.6769819
170,171,Sapienza University of Rome,IT,Italy,78,74,36.6,262,4.5,601+,50.2,258,3.4,601+,11.4,601+,98,23,55.8,209,46.8,,,
171,172,Indian Institute of Technology Bombay (IITB),IN,India,53.3,145,86.5,59,25.8,572,55.1,228,3.9,601+,1.6,601+,58,593,76.7,115,46.7,"Indian Institute of Technology Bombay, Powai, Zone 6, Mumbai, Mumbai Suburban District, Maharashtra, 400076, India",72.91497913,19.13261855
172,173,Western University,CA,Canada,30.6,280,60.5,129,4.6,601+,96.9,32,99.8,72,57.2,250,86,225,81,101,46.7,"Western University, Easthill Drive, Jamacha, Skyline, San Diego, San Diego County, California, 91945, United States",-117.0372503,32.7139413
173,174,Ecole des Ponts ParisTech,FR,France,8.4,501+,55.3,147,97.4,53,56.7,219,36.3,431,95,79,43.8,601+,90.4,68,46.5,"École des Ponts ParisTech, Avenue Blaise Pascal, Bois de Grâce, Cité Descartes, Champs-sur-Marne, Torcy, Seine-et-Marne, Île-de-France, France métropolitaine, 77420, France",2.58827325,48.84110375
174,175,Indian Institute of Technology Delhi (IITD),IN,India,49,161,79.2,72,27.7,543,65.2,176,2.6,601+,1.7,601+,42.2,601+,84.8,84,46.5,"Indian Institute of Technology Delhi, Wind Tunnel, Hauz Khas, Hauz Khas Tehsil, South Delhi District, Delhi, 110016, India",77.18915057,28.54499705
175,176,Case Western Reserve University,US,United States,18.3,471,20.2,458,89.1,90,65.8,172,47.8,366,64.6,220,72.5,433,40.9,319,46.2,"Case Western Reserve University, 10900, Euclid Avenue, Little Italy, Cleveland, Cuyahoga County, Ohio, 44106, United States",-81.60070217,41.50138695
176,177,National Tsing Hua University,TW,Taiwan,51.3,149,69,100,34.4,449,47.7,279,17.7,601+,19.1,552,35.8,601+,5.5,601+,45.9,"國立清華大學, 101, 光復路二段298巷9弄, 文教新城, 建功里, 東區, 新竹市, 30013, 臺灣",120.9924295,24.7916987
177,178,Universitat Autònoma de Barcelona,ES,Spain,62.2,111,28.9,336,11.8,601+,66.9,164,20.7,574,20.2,535,94.1,91,20,590,45.8,"Universitat Autònoma de Barcelona, Carrer de l'Albareda, Cerdanyola del Vallès, Vallès Occidental, Barcelona, Catalunya, 08193, España",2.106260724,41.50155265
178,179,Technische Universität Wien,AT,Austria,30.9,274,50.3,169,12.3,601+,86.6,83,79.7,221,86.7,127,76.7,366,29.5,426,45.7,"TU Wien, Hauptgebäude, 13, Karlsplatz, Wieden, KG Wieden, Wieden, Wien, 1040, Österreich",16.36986168,48.19853965
179,180,University of Bath,UK,United Kingdom,34.4,247,68.9,102,19.9,601+,59.1,205,97.4,120,83.6,143,78.2,344,41,317,45.7,"University of Bath, North Fire Road, Claverton Down, Bath, Bath and North East Somerset, West of England, England, BA2 7JY, United Kingdom",-2.323432594,51.37658725
180,181,Khalifa University of Science and Technology,AE,United Arab Emirates,16.6,501+,15.2,501+,91.7,80,51.9,248,100,10,69.7,204,72.8,430,15.8,601+,45.6,,,
181,182,University College Dublin,IE,Ireland,48.7,165,46.8,204,22.5,601+,43,320,98.7,103,63.1,223,87.6,203,64.4,170,45.6,"University College Dublin (Belfield Campus), Rosemount Crescent, Clonskeagh, Roebuck, Clonskeagh-Belfield DED 1986, Dundrum, Dún Laoghaire-Rathdown, County Dublin, Leinster, D14 NH72, Éire / Ireland",-6.224625093,53.3068763
182,183,University of Pittsburgh,US,United States,39.9,211,16.3,501+,96.3,58,37.4,373,7.9,601+,13.8,601+,90.3,152,44,293,45.6,"University of Pittsburgh, 4200, Fifth Avenue, West Oakland, Pittsburgh, Allegheny County, Pennsylvania, 15260, United States",-79.96246095,40.44415295
183,184,Universitat de Barcelona,ES,Spain,71.9,84,28.1,343,13.6,601+,44.5,305,14.6,601+,26.5,458,96.9,42,53.5,230,45.5,"Universitat de Barcelona, Carrer d'Aribau, l'Antiga Esquerra de l'Eixample, Eixample, Barcelona, Barcelonès, Barcelona, Catalunya, 08001, España",2.163523846,41.3868913
184,185,University of Gothenburg,SE,Sweden,37.4,228,20.1,462,66.1,216,34.4,399,86.9,192,74.4,185,94.9,76,48.7,262,45.4,"Göteborgs Universitet, 5, Universitetsplatsen, Vasastaden, Centrum, Göteborg, Göteborgs Stad, Västra Götalands län, 405 30, Sverige",11.97124216,57.69854645
185,186,University of Minnesota Twin Cities,US,United States,60.1,116,28.2,341,38.2,403,49.2,269,7.1,601+,10.1,601+,97.6,31,54.5,218,45.4,"The University of Minnesota, Twin Cities Campus, University Avenue Southeast, Prospect Park - East River Road, Falcon Heights, Hennepin County, Minnesota, 55455, United States",-93.1794558,44.9863392
186,187,University of Wollongong,AU,Australia,29.4,290,34.1,286,20.9,601+,88,74,93.9,149,70.1,200,91.4,131,24.2,504,45.4,"University of Wollongong, Unicentre Road, Keiraville, Wollongong City Council, New South Wales, 2500, Australia",150.8783465,-34.40505545
187,188,University of Florida,US,United States,48.5,166,47,201,71.4,177,26.4,470,17.5,601+,11.3,601+,98,22,54,224,45.3,"University of Florida, Corry Circle, Corry Village, Gainesville, Alachua County, Florida, 32611, United States",-82.34901302,29.6328837
188,189,Albert-Ludwigs-Universitaet Freiburg,DE,Germany,47.4,170,18.6,487,36.5,426,57.3,217,67.6,272,41,339,89,184,19.3,601+,45.2,"Albert-Ludwigs-Universität Freiburg, Schnewlinstraße, Unterwiehre-Nord, Wiehre, Freiburg im Breisgau, Baden-Württemberg, 79100, Deutschland",7.849140132,48.00229565
189,190,RMIT University,AU,Australia,36.6,234,55.5,146,6.7,601+,66,167,100,35,93.4,91,85.8,229,41,316,44.6,"RMIT University, Lygon Street, Carlton, Melbourne, City of Melbourne, Victoria, 3010, Australia",144.9653216,-37.8057346
190,191,University of Liverpool,UK,United Kingdom,42.7,194,34.3,283,41.5,377,33.7,406,87.5,189,88.5,118,98.1,21,38.9,335,44.6,"University of Liverpool, Brownlow Hill, Knowledge Quarter, Islington, Liverpool, Liverpool City Region, England, L3 5RH, United Kingdom",-2.965833661,53.40724285
191,192,"The University of Newcastle, Australia (UON)",AU,Australia,29.1,294,25.7,374,34.1,455,86.7,80,99.9,68,17.6,567,78.6,339,45.1,280,44.5,,,
192,193,Curtin University,AU,Australia,30.5,282,41.2,227,13.9,601+,89.4,67,100,40,44,314,93.7,94,20.1,586,44.4,"Curtin University, Rivervale, City of Belmont, Western Australia, 6103, Australia",115.8927944,-32.0056018
193,194,Wuhan University,CN,China (Mainland),38.8,219,56.6,141,13.8,601+,88.1,73,42.4,396,7.2,601+,72.8,428,32.7,387,44.3,"武汉大学, 299号, 八一路, 珞珈山街道, 武昌区, 武汉市, 湖北省, 430072, 中国",114.3615203,30.53735405
194,195,Macquarie University,AU,Australia,30.9,275,48.9,182,13.6,601+,74.6,126,93,158,88.9,114,88.3,193,53.9,226,44.2,"Macquarie University, Epping Road, Macquarie Park, Sydney, Council of the City of Ryde, New South Wales, 2113, Australia",151.1127676,-33.77400285
195,196,Université catholique de Louvain (UCLouvain),BE,Belgium,49.7,156,43,220,5.4,601+,61.7,194,89.4,177,38.4,358,89.6,173,49.1,258,44.2,"UCLouvain Bruxelles Saint-Gilles, 47-51, Rue Henri Wafelaerts - Henri Wafelaertsstraat, Ma Campagne, Saint-Gilles - Sint-Gillis, Brussel-Hoofdstad - Bruxelles-Capitale, Région de Bruxelles-Capitale - Brussels Hoofdstedelijk Gewest, 1060, België / Belgique / Belgien",4.349553369,50.8212127
196,197,Keio University,JP,Japan,50.3,154,91.9,48,60.3,258,6.6,601+,10.6,601+,12.4,601+,46,601+,83.7,90,44.1,"慶應義塾日吉キャンパス, 綱島街道, 日吉二丁目, 日吉, 港北区, 横浜市, 神奈川県, 231-0017, 日本",139.6495838,35.55208405
197,198,Ulsan National Institute of Science and Technology (UNIST),SK,South Korea,11.8,501+,7.4,501+,79.8,138,99.9,11,38.3,413,12,601+,31.7,601+,14.9,601+,44.1,"울산과학기술원, 공학관 다리, 울주군, 울산, 44936, 대한민국",129.1897266,35.57374845
198,199,Vanderbilt University,US,United States,25.9,329,22.2,424,100,9,38.5,361,38.7,412,30,429,83,271,56.1,207,43.9,"Vanderbilt University, 2201, West End Avenue, Nashville-Davidson, Davidson County, Middle Tennessee, Tennessee, 37235, United States",-86.80281889,36.14380105
199,200,Technische Universität Dresden,DE,Germany,37.4,226,37,258,89.1,89,14.9,601+,42.9,392,36,383,94.2,90,9.9,601+,43.6,"Technische Universität Dresden, Kreischa, Sächsische Schweiz-Osterzgebirge, Sachsen, 01731, Deutschland",13.73598275,51.0282765
200,201,Rheinische Friedrich-Wilhelms-Universität Bonn,DE,Germany,51.3,150,16.9,501+,68.1,199,15.1,601+,51.9,344,32.1,416,92.4,116,22.8,533,43.3,"Rheinische Friedrich-Wilhelms-Universität Bonn, Arkadenhof, Bonn-Zentrum, Stadtbezirk Bonn, Bonn, Nordrhein-Westfalen, 53113, Deutschland",7.1022465,50.7338124
201,202,National Yang Ming Chiao Tung University,TW,Taiwan,34.8,243,74.6,87,50.3,314,46.2,290,23.8,533,22.3,501,42.8,601+,51.3,242,43.2,"陽明交通大學, 100, 歸仁十三路一段, 沙崙里, 歸仁區, 臺南市, 711010, 臺灣",120.293998,22.925322
202,203,Universiti Teknologi Malaysia ,MY,Malaysia,44.5,186,55.9,143,46.3,335,28.6,446,12,601+,77.2,168,82.9,272,13.1,601+,43,"Universiti Teknologi Malaysia, Jalan Iman, Iskandar Puteri, Kulai, Iskandar Malaysia, Johor, 81310, Malaysia",103.6399138,1.55852225
203,204,University of Lausanne,CH,Switzerland,30.6,281,16.8,501+,43.5,355,61,197,99.9,69,59.1,242,82,288,53.4,231,43,"Université de Lausanne, Rue du Léman, Quartier Mouline, Chavannes-près-Renens, District de l'Ouest lausannois, Vaud, 1022, Schweiz/Suisse/Svizzera/Svizra",6.58094986,46.5225695
204,205,Dartmouth College,US,United States,19.2,447,25.9,369,65.2,222,86.7,81,5.7,601+,32.8,409,53.7,601+,96.7,38,42.8,"Dartmouth College, College Street, Hanover, Grafton County, New Hampshire, 03755, United States",-72.29052293,43.70526735
205,206,Waseda University,JP,Japan,58.7,121,96.5,27,27.2,558,4.4,601+,28.4,494,35.2,390,63.5,525,72.2,127,42.8,"早稲田大学早稲田キャンパス, 1, 西早稲田一丁目, 新宿区, 東京都, 169-8050, 日本",139.7197213,35.70917975
206,207,University of Bergen,NO,Norway,33.8,253,8.1,501+,76,159,41.1,347,86.6,193,8,601+,87.9,198,21.7,554,42.7,"Høgskulen på Vestlandet, Campus Kronstad, St. Halvards vei, Tveiterås, Kronstad, Årstad, Bergen, Vestland, 5052, Norge",5.351111541,60.36887575
207,208,Erasmus University Rotterdam ,NL,Netherlands,35.6,239,47,202,28.3,539,54.9,232,83.2,208,53.2,269,87.1,209,56.1,206,42.6,"Erasmus Universiteit Rotterdam, 50, Burgemeester Oudlaan, Kralingen-Oost, Kralingen-Crooswijk, Rotterdam, Zuid-Holland, Nederland, 3062 PA, Nederland",4.525962326,51.9176312
208,209,Qatar University,QA,Qatar,24.4,349,33.2,293,61.1,248,36.9,378,100,19,94.8,84,90.1,159,1.1,601+,42.6,"جامعة قطر, اوجاب الرجا, لقطيفية, الدوحة, قطر",51.48795786,25.3719714
209,210,Universidade Estadual de Campinas (Unicamp),BR,Brazil,68.7,93,32.7,298,11.6,601+,43.2,317,8.1,601+,3.2,601+,84.1,257,13.4,601+,42.5,"Universidade Estadual de Campinas, Rua Doutor Francisco de Toledo, Cidade Universitária, Barão Geraldo, Campinas, Região Imediata de Campinas, Região Metropolitana de Campinas, Região Geográfica Intermediária de Campinas, São Paulo, Região Sudeste, 13083-854, Brasil",-47.06420062,-22.8227237
210,211,Universite libre de Bruxelles,BE,Belgium,34.3,248,50.4,168,4.1,601+,67.8,159,96.6,127,86.3,132,82.2,284,49.6,253,42.5,"Université libre de Bruxelles (Campus du Solbosch), Avenue Brillat-Savarin - Brillat-Savarinlaan, Petite Suisse - Klein-Zwitserland, Ixelles - Elsene, Brussel-Hoofdstad - Bruxelles-Capitale, Région de Bruxelles-Capitale - Brussels Hoofdstedelijk Gewest, 1050, België / Belgique / Belgien",4.381235729,50.81347185
211,212,Tongji University,CN,China (Mainland),33.2,254,10,501+,26.6,563,87.5,75,66.2,281,35.8,386,71,448,25.9,478,42.4,"同济大学（沪西校区）, 500, 真南路, 桃浦镇, 普陀区, 上海市, 200333, 中国",121.3856617,31.27369175
212,213,University of Twente,NL,Netherlands,20.2,418,36.3,266,37,419,67.9,158,98.8,99,90.7,107,82.5,280,9.2,601+,42.4,"Universiteit Twente, De Horst, Enschede, Overijssel, Nederland, 7522 LW, Nederland",6.850915739,52.24332675
213,214,Vrije Universiteit Amsterdam,NL,Netherlands,39.7,214,12.6,501+,30,512,70,150,64.6,285,33.5,402,89.8,166,19,601+,42.3,"Vrije Universiteit Amsterdam, 1105, De Boelelaan, Zuidas Knowledge District, Zuid, Amsterdam, Noord-Holland, Nederland, 1081 HV, Nederland",4.865196501,52.33396225
214,215,Universidad Autónoma de Madrid,ES,Spain,59,119,55.5,145,37.3,414,20.8,547,9,601+,14.7,601+,89.3,179,23,527,42.2,"Universidad Autónoma de Madrid (U.A.M.) Campus de Cantoblanco, Calle Marie Curie, El Goloso, Fuencarral-El Pardo, Madrid, Comunidad de Madrid, 28049, España",-3.694957766,40.5453765
215,216,University of Göttingen,DE,Germany,49.3,158,21.5,433,64.1,229,18.7,576,48.4,359,23.6,484,92.7,111,15.4,601+,42.2,"Dalhousie Faculty of Architecture and Planning, 5410, Spring Garden Road, Downtown Halifax, Halifax, Halifax Regional Municipality, Halifax County, Nova Scotia, B3H 4R2, Canada",-63.5745737,44.6433266
216,217,Harbin Institute of Technology,CN,China (Mainland),26.6,320,8.9,501+,50.5,313,96.5,35,9.5,601+,7.8,601+,64.7,513,15.4,601+,42,"哈尔滨工业大学, 文景头道街, 花园街道, 南岗区, 哈尔滨市, 黑龙江省, 150000, 中国",126.6255626,45.741589
217,218,University of Otago,NZ,New Zealand,47.1,172,34.3,282,12.5,601+,51.4,250,100,38,34.5,394,77,362,49.3,254,42,"University of Otago, George Street, North Dunedin, Dunedin, Dunedin City, Otago, 9016, New Zealand / Aotearoa",170.5146149,-45.8649793
218,219,Arizona State University,US,United States,46.7,173,40.2,233,8.2,601+,59.9,201,67.7,270,37.1,372,90.2,156,33.4,382,41.8,"Arizona State University, 1151, South Forest Avenue, Tempe Junction, Tempe, Maricopa County, Arizona, 85281, United States",-111.9331593,33.4213174
219,220,Universidad de los Andes,CO,Colombia,62.9,108,95,33,19.5,601+,6.1,601+,30.5,469,1.8,601+,56.9,601+,66.1,159,41.6,"Universidad de los Andes, Diagonal 20A, La Aguas, UPZs Localidad La Candelaria, Localidad La Candelaria, Bogotá, Bogotá Distrito Capital - Municipio, RAP (Especial) Central, 111711, Colombia",-74.06490329,4.60140465
220,221,University of Aberdeen,UK,United Kingdom,28.3,301,36,269,33.5,458,50.6,257,94.8,140,97.6,62,87.4,205,19,601+,41.6,"University of Aberdeen, Orchard Walk, Old Aberdeen, Aberdeen City, Alba / Scotland, AB24 3DG, United Kingdom",-2.101836355,57.16452475
221,222,Queensland University of Technology (QUT),AU,Australia,39.5,217,40,234,7.7,601+,65.1,177,97.5,118,41.4,335,90,162,22.1,547,41.5,"Queensland University of Technology - Kelvin Grove, Victoria Park Road, Kelvin Grove, Greater Brisbane, Queensland, 4059, Australia",153.0162194,-27.45122955
222,223,The Hebrew University of Jerusalem,IL,Israel,34.8,242,23.8,403,78.8,144,28.7,445,63.7,291,7.1,601+,74.6,404,89.3,74,41.5,,,
223,224,Chulalongkorn University,TH,Thailand,65.1,104,63.8,116,34.6,446,6.2,601+,9.6,601+,2.8,601+,75.1,390,93.6,47,41.4,"จุฬาลงกรณ์มหาวิทยาลัย, 254, ถนนพญาไท, แขวงวังใหม่, เขตปทุมวัน, กรุงเทพมหานคร, 10330, ประเทศไทย",100.5328841,13.7431095
224,225,National Cheng Kung University (NCKU),TW,Taiwan,47.2,171,71.9,91,40.7,386,22.2,525,27.8,502,22.9,494,51.4,601+,17.9,601+,41.4,"總圖書館, 1, 大學路, 大學里, 東區, 臺南市, 70101, 臺灣",120.2198831,22.99986015
225,226,Complutense University of Madrid,ES,Spain,69.2,90,57.4,138,22.3,601+,10.2,601+,5.7,601+,15.1,601+,96.4,51,67,154,41.2,"Universidad Complutense de Madrid (Campus de Somosaguas), M-503, Distrito Municipal II (sin urbanizaciones), Húmera, Pozuelo de Alarcón, Comunidad de Madrid, 28223, España",-3.790043948,40.4314742
226,227,Southern University of Science and Technology,CN,China (Mainland),7.8,501+,1.7,501+,97.7,50,80.9,107,38.2,416,1.7,601+,56.9,601+,4.2,601+,41.2,"南方科技大学, 1088, 学苑大道, 深圳大学城, 桃源街道, 南山区, 汕尾市, 广东省, 518055, 中国",113.9967539,22.6036861
227,228,Universität Hamburg,DE,Germany,50.8,152,19.8,465,16,601+,58.9,208,43.3,390,21.1,524,93.2,106,34.4,370,40.7,"Universität Hamburg, Bundesweg, Rotherbaum, Eimsbüttel, Hamburg, 20146, Deutschland",9.974051444,53.56778265
228,229,University of Reading,UK,United Kingdom,33.2,255,29.1,333,20.9,601+,55,229,93.3,153,83.9,139,90.4,150,29.6,424,40.4,"University of Reading Whiteknights Campus, Wilderness Road, Lower Earley, Earley, Wokingham, England, RG6 7RR, United Kingdom",-0.941761833,51.4404358
229,230,Bauman Moscow State Technical University,RU,Russia,27.2,311,50.2,171,100,16,1.4,601+,37.3,425,41.2,337,8.6,601+,16.5,601+,40.3,,,
230,231,Gadjah Mada University,ID,Indonesia,49.1,160,55.1,149,62.3,243,1.6,601+,39.2,409,2,601+,28.8,601+,36.2,358,40.2,"Universitas Kanjuruhan Malang, Jalan Sudanco Supriyadi, RW 04 Kel. Sukun, Sukun, Kota Malang, Bandungrejosari, Kota Malang, Jawa Timur, Jawa, 65148, Indonesia",112.6199075,-8.0068857
231,232,Radboud University ,NL,Netherlands,29.9,288,13.5,501+,27.6,548,82.4,102,69.8,261,19.4,547,90.9,141,6.5,601+,40,"Radboud Universiteit, Hoefslag, Brakkenstein, Nijmegen-Zuid, Nijmegen, Gelderland, Nederland, 6525 PA, Nederland",5.863403443,51.82151725
232,233,Queen's University Belfast,UK,United Kingdom,31.7,266,27.6,347,34.5,448,37.3,374,99.3,86,99,46,95.1,71,11.4,601+,39.9,"Queen's University Belfast, Ashley Avenue, Windsor, Béal Feirste / Belfast, County Antrim, Tuaisceart Éireann / Northern Ireland, BT9 7AJ, United Kingdom",-5.933721043,54.58414875
233,234,Universitat Pompeu Fabra (Barcelona),ES,Spain,30.8,278,26.2,364,9.9,601+,91.5,60,67.3,274,22.2,502,78.4,342,51.4,240,39.9,"Campus Ciutadella Universitat Pompeu Fabra, Carrer de Llull, la Vila Olímpica del Poblenou, Sant Martí, Barcelona, Barcelonès, Barcelona, Catalunya, 08001, España",2.191105535,41.3892781
234,235,Bandung Institute of Technology (ITB),ID,Indonesia,43.7,189,54.3,152,62.2,244,2.3,601+,66.6,279,3.1,601+,21.5,601+,41.6,313,39.5,"Institut Teknologi Bandung, Jatinangor, Jalan ITB 2, Sayang, Sumedang, Jawa Barat, Jawa, 45363, Indonesia",107.7688891,-6.92898405
235,236,"University of California, Irvine",US,United States,39.7,213,18.4,492,12.9,601+,59.9,200,72,251,69.1,206,85.8,231,11.6,601+,39.5,"University of California, Irvine, Federation Way, Turtle Ridge, Irvine, Orange County, California, 92617, United States",-117.8401121,33.6429443
236,237,King Saud University,SA,Saudi Arabia,34.5,245,13.1,501+,60.8,252,29.3,438,98.6,105,23.3,487,93.4,103,83.4,93,39.4,"جامعة الملك سعود, 4545, طريق الملك خالد, النخيل, بلدية المعذر, محافظة الرياض, منطقة الرياض, 12572, السعودية",46.62333547,24.72468015
237,238,University of Cape Town,ZA,South Africa,43.6,190,50.7,166,15.7,601+,44.6,302,62.1,302,30.1,426,95.5,64,92.8,53,39.4,"University of Cape Town, Grotto Road, Rondebosch, Cape Town, City of Cape Town, Western Cape, 7700, South Africa",18.4675777,-33.95675585
238,239,University of Ottawa,CA,Canada,25.9,330,38.8,242,4.4,601+,80.3,110,90.5,171,70.8,196,90.7,146,10.8,601+,39.4,"University of Ottawa, 1, Stewart Street, Byward Market, Rideau-Vanier, (Old) Ottawa, Ottawa, Eastern Ontario, Ontario, K1N 6N5, Canada",-75.68736498,45.42580945
239,240,University of Sussex,UK,United Kingdom,23.9,355,6.8,501+,16.2,601+,80.5,109,96.9,125,92.5,101,85.9,227,38,340,39.2,"University of Sussex, A27, Falmer, Lewes, East Sussex, England, BN1 9NJ, United Kingdom",-0.087788994,50.86796665
240,241,USI - Università della Svizzera italiana,CH,Switzerland,5.3,501+,4.6,501+,85,109,47.2,283,100,23,100,9,38.5,601+,61.7,183,39.2,"Università della Svizzera Italiana, Via Marco da Carona, Quartiere Maghetti, Molino Nuovo, Lugano, Circolo di Lugano ovest, Distretto di Lugano, Ticino, 6900, Schweiz/Suisse/Svizzera/Svizra",8.958120472,46.0109126
241,242,University of Calgary,CA,Canada,36.1,237,50.5,167,21.2,601+,41.9,334,80.6,218,54.2,265,85.2,236,35.3,366,39,"University of Calgary, 32 Avenue NW, University District, Calgary, Alberta, T2L 1Y7, Canada",-114.1387617,51.07505395
242,243,Universidad Nacional de Colombia,CO,Colombia,67.5,98,93.4,41,6.1,601+,3.6,601+,7.2,601+,1.5,601+,58.6,583,36.3,357,38.9,"Universidad Nacional de Colombia, 26-85, Carrera 45, Ciudad Universitaria, UPZs Localidad Teusaquillo, Localidad Teusaquillo, Bogotá, Bogotá Distrito Capital - Municipio, RAP (Especial) Central, 111321, Colombia",-74.08523751,4.63874255
243,244,Università di Padova,IT,Italy,56.2,134,30.4,321,9.3,601+,51.9,247,11.5,601+,7.1,601+,93.4,100,10.5,601+,38.9,"Università di Padova, Peter-Mayr-Straße - Via Peter Mayr, Kachlerau - Vicolo Pentolai, Brixen - Bressanone, Milland - Millan, Brixen - Bressanone, Eisacktal - Valle Isarco, Bolzano - Bozen, Trentino-Alto Adige/Südtirol, 39042, Italia",11.65167594,46.7197799
244,245,University of Notre Dame,US,United States,26.6,321,44.2,216,61.5,247,47.3,281,23.5,540,15.2,601+,74.8,402,74.8,120,38.9,"University of Notre Dame du Lac, Ironwood Road, Notre Dame, Saint Joseph County, Indiana, 46556, United States",-86.23822026,41.70456775
245,246,Queen's University at Kingston,CA,Canada,38.6,220,69,99,6.1,601+,49.6,264,70.3,256,33.2,403,77.6,353,74.1,122,38.8,,,
246,247,Yeshiva University,US,United States,2.6,501+,3.7,501+,85.5,108,98.5,21,,,8.9,601+,42.2,601+,24.1,505,38.8,"ישיבה יוניברסיטי, ברוך דובדבני, הולילנד, בית וגן, ירושלים | القدس, נפת ירושלים, מחוז ירושלים, 9328257, ישראל",35.19149699,31.76349175
247,248,Universitas Indonesia,ID,Indonesia,47.5,168,62.4,120,44.9,344,1.9,601+,72.7,248,4.7,601+,40.3,601+,35.8,360,38.7,"Universitas Indonesia, Gang Matrial, RW 01, Srengseng Sawah, Jagakarsa, Jakarta Selatan, Daerah Khusus Ibukota Jakarta, Jawa, 16424, Indonesia",106.8271856,-6.36031565
248,249,Université Paris Cité,FR,France,34.7,244,6.8,501+,11.9,601+,91.5,59,21,571,43.5,318,99.4,7,2.5,601+,38.7,"Université Paris-Cité, Esplanade Pierre Vidal-Naquet, Quartier de la Gare, Paris 13e Arrondissement, Paris, Île-de-France, France métropolitaine, 75013, France",2.3816843,48.82959855
249,250,Indian Institute of Technology Madras (IITM),IN,India,38,222,58.3,134,27.6,550,58.3,213,2.8,601+,1.4,601+,41.4,601+,76.1,118,38.6,"Indian Institute of Technology Madras, Sardar Patel Road, Ward 174, Zone 13 Adyar, Chennai, Chennai District, Tamil Nadu, 600036, India",80.23668255,12.99415605
250,251,Vrije Universiteit Brussel (VUB),BE,Belgium,22.7,366,16.1,501+,76.2,156,23.8,505,92.1,163,60.5,234,90.8,143,52,237,38.5,"Vrije Universiteit Brussel – Campus Etterbeek, 2, Boulevard de la Plaine - Pleinlaan, Cité Volta - Voltawijk, Ixelles - Elsene, Brussel-Hoofdstad - Bruxelles-Capitale, Région de Bruxelles-Capitale - Brussels Hoofdstedelijk Gewest, 1050, België / Belgique / Belgien",4.39549148,50.8225529
251,252,American University of Beirut (AUB),LB,Lebanon,27.2,312,40.7,228,62.1,246,20,561,74.9,237,61.8,229,73.8,414,99,22,38.4,"AUB soccer green field, جادة باريس, الجامعة الأمريكية, الجامعة, دار المريسة, محافظة بيروت, 2034 1111, لبنان",35.48134701,33.90188055
252,253,University of Massachusetts Amherst,US,United States,40.7,204,16.8,501+,13.7,601+,65.3,175,65.2,283,22.6,498,81.1,301,50.9,244,38.3,"University of Massachusetts Amherst, University Of Mass Field Road Branch, Presidential Apartments, Amherst, Hampshire County, Massachusetts, 01003, United States",-72.52991477,42.3869382
253,254,University of Navarra,ES,Spain,29.4,291,66.4,109,59.7,263,15.1,601+,22.4,552,71.8,194,74.6,405,28.8,439,38.3,"Universidad de Navarra, Calle Universidad, Iturrama, Pamplona/Iruña, Iruñerria / Comarca de Pamplona, Navarra - Nafarroa, 31008, España",-1.658569529,42.80115395
254,255,University of Virginia,US,United States,35.2,240,37.5,254,60.7,253,36.5,381,6.7,601+,10.9,601+,84.9,242,81.5,99,38.3,"University of Virginia, 10th Street Southwest, Fifeville, Starr Hill, Charlottesville, Virginia, 22903, United States",-78.5054996,38.0410576
255,256,Loughborough University,UK,United Kingdom,29.9,289,65.9,111,22.2,601+,37.7,371,84.3,205,63.7,221,88.2,195,25.6,481,38.1,"Loughborough University, University Road, Loughborough, Charnwood, Leicestershire, England, LE11 3QN, United Kingdom",-1.239636536,52.7626882
256,257,Mahidol University,TH,Thailand,40.5,208,42.7,222,79.3,142,5.2,601+,5.7,601+,4.4,601+,59.2,579,8.3,601+,38.1,"มหาวิทยาลัยมหิดล, Sanpandawn to Garden, ศาลายา, กระทุ่มล้ม, ท่าตลาด, จังหวัดนครปฐม, 73170, ประเทศไทย",100.3218583,13.79465205
257,258,Universiti Brunei Darussalam (UBD),BN,Brunei,19.1,451,9.8,501+,96.5,56,8.5,601+,100,43,65.4,217,36.4,601+,1,601+,38.1,"Universiti Brunei Darussalam, Jalan Universiti, Tungku, Mukim Gadong A, Brunei-Muara, BE1410, Brunei",114.8948152,4.97593995
258,259,Sciences Po ,FR,France,18.7,456,31.9,307,93.6,67,3.3,601+,56.8,324,98.6,52,26.3,601+,92.6,55,38,"Institut d'Études Politiques, Rue des Saints-Pères, Quartier Saint-Thomas-d'Aquin, Paris 7e Arrondissement, Paris, Île-de-France, France métropolitaine, France",2.329021231,48.85389775
259,260,Novosibirsk State University,RU,Russia,27.3,308,15.9,501+,94,65,15.7,601+,7.3,601+,58,247,52.3,601+,24.9,491,37.9,"Новосибирский государственный университет, тропинка академика К. И. Замараева, Академгородок, Советский район, городской округ Новосибирск, Новосибирская область, Сибирский федеральный округ, 630000, Россия",83.09421307,54.84614165
260,261,Tel Aviv University,IL,Israel,32.7,258,19.2,479,4.2,601+,99.7,13,34,448,5.5,601+,81.9,292,90.7,66,37.9,"תל אביב אוניברסיטה, איילון דרום, אוניברסיטת ת""א, תל אביב - יפו, אוניברסיטת תל אביב, תל אביב-יפו, נפת תל אביב, מחוז תל אביב, 5253527, ישראל",34.8046101,32.1037064
261,262,Beijing Normal University ,CN,China (Mainland),36.3,235,6.4,501+,27.7,546,76.4,122,7.9,601+,25.3,465,69.8,462,17.5,601+,37.8,"北京师范大学, 19, 新街口外大街, 花园路街道, 海淀区, 北京市, 100875, 中国",116.359737,39.959732
262,263,The University of Arizona,US,United States,39.6,216,22.4,420,67.6,201,21.5,533,20.5,576,13.5,601+,97,38,40.7,321,37.8,,,
263,264,Indian Institute of Technology Kanpur (IITK),IN,India,32.6,259,49.3,179,17.4,601+,79,114,2.3,601+,1.2,601+,25.9,601+,73.8,124,37.6,,,
264,265,Tomsk State University,RU,Russia,22.9,364,11.2,501+,99.6,32,6.3,601+,25.1,524,93.1,96,68.6,472,4.1,601+,37.6,"Томский государственный университет. Центр культуры, 36, проспект Ленина, Нижняя Елань, Кировский район, Томск, городской округ Томск, Томская область, Сибирский федеральный округ, 634050, Россия",84.94677153,56.4695875
265,266,Deakin University,AU,Australia,27.6,306,30.7,318,4.7,601+,66.8,165,97.8,114,80.5,155,85.3,235,28.8,437,37.5,"Deakin University, 221, Burwood Highway, Burwood, Melbourne, City of Whitehorse, Victoria, 3125, Australia",145.1149473,-37.84751365
266,267,Moscow Institute of Physics and Technology (MIPT / Moscow Phystech),RU,Russia,19.7,435,22.5,419,97.9,49,16,601+,32.7,455,51,286,43.1,601+,45.6,277,37.3,"Московский физико-технический институт, 9, Институтский переулок, Долгопрудный, городской округ Долгопрудный, Московская область, Центральный федеральный округ, 141700, Россия",37.51866808,55.929035
267,268,Rutgers University–New Brunswick,US,United States,37.6,224,35.6,276,51.3,306,26.3,472,22.4,553,36.5,378,90.8,144,15.5,601+,37.3,"Rutgers, Livingston Avenue, New Brunswick, Middlesex County, New Jersey, 08902, United States",-74.44520167,40.4929271
268,269,Sun Yat-sen University,CN,China (Mainland),34.4,246,32.5,300,52.6,298,46,292,2.9,601+,5,601+,75.7,377,17.7,601+,37.3,"中山大学广州校区南校园, 135, 新港西路, 旧凤凰, 新港街道, 海珠区, 广州市, 广东省, 510275, 中国",113.2923509,23.09960335
269,270,Indian Institute of Technology Kharagpur (IIT-KGP),IN,India,30.2,285,48.3,185,13,601+,86.4,85,3.7,601+,1.1,601+,52.4,601+,65.6,166,37.2,"Indian Institute of Technology Kharagpur, Boundary Road, Kharagpur, Kharagpur-I, Paschim Medinipur District, West Bengal, 721302, India",87.31039203,22.31442745
270,271,Kyung Hee University,KR,South Korea,24.9,344,39,239,85.7,107,13.3,601+,15.3,601+,52.4,279,63.1,530,10.2,601+,37.2,"경희대학교 서울캠퍼스, 26, 경희대로, 회기동, 동대문구, 서울, 02447, 대한민국",127.0519867,37.5971213
271,272,National University of Ireland Galway,IE,Ireland,26.4,322,31.6,313,70.7,183,13.5,601+,91.3,165,37.9,363,75.7,376,39.3,332,37.2,"Ollscoil na Gaillimhe - University of Galway, University Road, Nun's Island, Cathair na Gaillimhe, County Galway, Connacht, H91 TK33, Éire / Ireland",-9.075059919,53.2936337
272,273,Saint Petersburg State University,RU,Russia,41.8,198,28.8,337,68.5,197,6.1,601+,5.9,601+,44.2,313,80.7,312,78.9,112,37.2,"Санкт-Петербургский государственный университет, площадь Академика Сахарова, округ № 7, Санкт-Петербург, Северо-Западный федеральный округ, 199034, Россия",30.29649994,59.9406782
273,274,University of Porto,PT,Portugal,40.7,206,23.8,404,12.8,601+,71.4,139,7.4,601+,21.3,523,96.9,41,55.4,211,37.1,"Pôle universitaire Léonard De Vinci, Escalier de la Renaissance, Faubourg de l'Arche, Quartier du Faubourg de l'Arche, Courbevoie, Nanterre, Hauts-de-Seine, Île-de-France, France métropolitaine, 92400, France",2.236757331,48.8961589
274,275,Technical University of Darmstadt,DE,Germany,20.8,400,38.8,241,6.1,601+,81.4,106,63.6,295,76.5,174,82.2,285,37.5,346,36.9,,,
275,276,Victoria University of Wellington,NZ,New Zealand,44.8,183,30.1,324,10.5,601+,30.9,424,99.4,82,50.2,292,69.7,463,63.6,175,36.9,"Victoria University of Wellington, Chancery Square, Britomart, City Centre, Auckland, Waitematā, Auckland, 1010, New Zealand / Aotearoa",174.767756,-36.8482415
276,277,L.N. Gumilyov Eurasian National University (ENU),KZ,Kazakhstan,25.1,338,37.8,249,98.8,42,1.4,601+,48.8,358,7,601+,14.3,601+,11.4,601+,36.8,,,
277,278,Maastricht University ,NL,Netherlands,21.8,379,22.1,428,14.9,601+,63.1,185,98.9,97,100,16,80.8,311,68.3,148,36.7,"Maastricht University, 153, Avenue de Tervueren - Tervurenlaan, Woluwe-Saint-Pierre - Sint-Pieters-Woluwe, Brussel-Hoofdstad - Bruxelles-Capitale, Région de Bruxelles-Capitale - Brussels Hoofdstedelijk Gewest, 1150, België / Belgique / Belgien",4.406164,50.8373469
278,279,University of Leicester,UK,United Kingdom,22.2,375,14.9,501+,44.6,346,42.7,324,82.9,209,88.7,115,85.7,232,15.5,601+,36.6,"University of Leicester, University Road, Highfields, Leicester, City of Leicester, England, LE1 7RH, United Kingdom",-1.12573014,52.62446355
279,280,University of Antwerp,BE,Belgium,22.7,368,12.6,501+,55.2,283,44.8,300,85.3,198,34.2,396,93.4,99,49.9,251,36.5,"Campus Middelheim Universiteit Antwerpen, Lindendreef, Middelheim, Antwerpen, Vlaanderen, 2020, België / Belgique / Belgien",4.419938688,51.1843856
280,281,Georgetown University,US,United States,31.2,270,44.6,213,55.4,281,27.3,458,10.5,601+,41.7,332,57.9,594,96,41,36.3,"Georgetown University, 3700, O Street Northwest, Peter Square, Georgetown, Washington, District of Columbia, 20057, United States",-77.07457962,38.90893925
281,282,Heriot-Watt University,UK,United Kingdom,14.9,501+,29.6,327,21.3,601+,65.8,173,100,62,94.9,82,64.3,519,31.9,394,36.3,"Heriot-Watt University, Riccarton Mains Road, Currie, City of Edinburgh, Alba / Scotland, EH14 4AS, United Kingdom",-3.323447515,55.91029585
282,283,Hong Kong Baptist University,HK,Hong Kong SAR,17,495,12.8,501+,50.9,310,39.6,354,98,112,100,10,30.4,601+,26.9,463,36.3,"香港浸會大學 Hong Kong Baptist University, 安明街 On Ming Street, 石門 Shek Mun, 插桅杆村 Chap Wai Kon Village, 沙田區 Sha Tin District, 新界 New Territories, 香港 Hong Kong, 中国",114.2082235,22.3874181
283,284,Graz University of Technology,AT,Austria,13.5,501+,7.6,501+,99.1,39,15.7,601+,75.6,234,61.2,231,59.7,573,40.7,323,36.1,"Technische Universität Graz, Plüddemanngasse, Sankt Leonhard, Graz, Steiermark, 8010, Österreich",15.46018743,47.0581999
284,285,Taylor's University,MY,Malaysia,21.5,387,80,70,55.1,284,6.6,601+,42.4,395,97.5,64,34.9,601+,28,450,36.1,"Lehigh University Asa Packer Campus, Hampton Street, South Bethlehem, South Terrace, Bethlehem, Northampton County, Pennsylvania, 18015, United States",-75.3777622,40.60408815
285,286,UCSI University,MY,Malaysia,20.5,407,54.9,151,67.1,207,2.8,601+,72.5,249,92.7,98,21.4,601+,74.3,121,36.1,"UCSI University, Jalan Alam Damai, Cheras, Kuala Lumpur, 56000, Malaysia",101.7323594,3.07880475
286,287,University of Canterbury | Te Whare Wānanga o Waitaha,NZ,New Zealand,38.9,218,39.6,237,11.3,601+,33.2,411,98.5,106,52.7,275,67.6,486,54,225,36.2,"University of Canterbury, Homestead Lane West, Christchurch, Christchurch City, Canterbury, 8041, New Zealand / Aotearoa",172.5803058,-43.5240894
287,288,University of Warsaw ,PL,Poland,48.9,162,63.3,117,38.4,402,7.1,601+,8.6,601+,9.3,601+,78,346,59.3,191,36.1,"Szkoła Główna Handlowa, 162, Aleja Niepodległości, Osiedle Batorego, Stary Mokotów, Mokotów, Warszawa, województwo mazowieckie, 02-554, Polska",21.00948487,52.20914255
288,289,Belarusian State University,BY,Belarus,24.2,350,39.7,236,96.8,54,1.3,601+,3.4,601+,48.2,303,46.2,601+,29.9,417,36,"Беларускі дзяржаўны ўніверсітэт, Кастрычніцкі раён, Мінск, 220045, Беларусь",27.47615526,53.83806745
289,290,Charles University,CZ,Czech Republic,45.3,181,34.9,280,41.3,378,10.7,601+,23.9,532,51.6,283,96,59,41.5,314,36,"Charles (Carlo) Bassi, Rothoviuksenkatu, Kasarmialue, I, Keskusta, Turku, Turun seutukunta, Varsinais-Suomi, Lounais-Suomen aluehallintovirasto, Manner-Suomi, 20500, Suomi / Finland",22.2791628,60.4518905
290,291,Gwangju Institute of Science and Technology (GIST),KR,South Korea,14.5,501+,6.6,501+,39.2,397,100,6,22.1,557,8.8,601+,34.5,601+,13.7,601+,36,"광주과학기술원, 123, 첨단과기로, 첨단1동, 북구, 광주, 61005, 대한민국",126.8421662,35.22815565
291,292,University of Turku,FI,Finland,28.8,297,32.1,305,60.3,259,36.3,382,27.3,505,4.9,601+,88.4,192,28.3,447,35.8,"Turun yliopisto, Yliopistonmäki, I, Keskusta, Turku, Turun seutukunta, Varsinais-Suomi, Lounais-Suomen aluehallintovirasto, Manner-Suomi, 20500, Suomi / Finland",22.28640968,60.45607315
292,293,Massey University,NZ,New Zealand,29.3,292,19.1,481,37.4,413,22.6,518,98.3,108,99.7,32,84.1,258,32.5,392,35.7,"Massey University, Wharerata Place, Albany South, Upper Harbour, Auckland, 0632, New Zealand / Aotearoa",174.70289,-36.73277025
293,294,Jagiellonian University,PL,Poland,38,221,55.1,150,62.6,240,6.6,601+,5,601+,11.9,601+,82.8,274,33,384,35.6,"Wydział Filozofii Uniwersytetu Jagiellońskiego, Marszałka Józefa Piłsudskiego, Piasek, Stare Miasto, Kraków, województwo małopolskie, 31-110, Polska",19.9305134,50.0605502
294,295,University of Tasmania,AU,Australia,16.5,501+,7.5,501+,14.5,601+,85.4,91,61.9,304,99.4,43,85.5,234,23.1,525,35.6,"University of Tasmania, Olinda Groove, Dynnyrne, Hobart, City of Hobart, Tasmania, 7005, Australia",147.3218083,-42.906822
295,296,RUDN University,RU,Russia,19.7,434,33.9,289,92.7,73,1.8,601+,9.7,601+,93,97,79.1,332,8.7,601+,35.5,"ЯСХТ, Якутский сельскохозяйственный техникум, 15, улица Пояркова, Якутск, городской округ Якутск, Республика Саха (Якутия), Дальневосточный федеральный округ, 677000, Россия",129.7328476,62.0350367
296,297,Swinburne University of Technology,AU,Australia,13,501+,16.4,501+,12.2,601+,87,77,97.8,113,72.2,191,76.6,367,18.1,601+,35.4,"Swinburne University of Technology (Hawthorn Campus), John Street, Hawthorn, Melbourne, City of Boroondara, Victoria, 3122, Australia",145.0385763,-37.8205585
297,298,United Arab Emirates University,AE,United Arab Emirates,26.3,323,36.6,263,59.4,265,11.5,601+,100,14,38.2,360,70.8,453,86.8,81,35.4,"United Arab Emirates University, G2 road, عشارج, Asharej, العين, أبو ظبي, الإمارات العربية المتحدة",55.6769692,24.1986813
298,299,University of Miami,US,United States,22.7,367,32.1,303,70.8,182,20.8,548,66.9,278,25.3,468,81.7,297,50.3,247,35.4,"University of Miami, Memorial Drive, Coral Gables, Miami-Dade County, Florida, 33124, United States",-80.27870688,25.71727245
299,300,University of Tartu,EE,Estonia,25.8,331,10.7,501+,88.9,91,14.3,601+,40,405,24.2,476,88,197,79.6,107,35.4,"Tartu Ülikool, 18, Ülikooli, Vanalinn, Kesklinn, Tartu linn, Tartu maakond, 50090, Eesti",26.71964753,58.38088965
300,301,Griffith University,AU,Australia,26.1,324,16.6,501+,7.6,601+,71.7,136,99.9,70,40.5,342,90,163,27,460,35.2,"Griffith University, Pacific Motorway, Upper Mount Gravatt, Greater Brisbane, Queensland, 4122, Australia",153.0642922,-27.54662495
301,302,Université Paris 1 Panthéon-Sorbonne ,FR,France,64,106,35.7,274,4.7,601+,3.4,601+,35.5,437,49.9,293,73.4,420,32.2,393,35.2,"Université Paris 1 Panthéon-Sorbonne, 2, Rue Cujas, Quartier de la Sorbonne, Paris 5e Arrondissement, Paris, Île-de-France, France métropolitaine, 75005, France",2.345508478,48.84739765
302,303,Xi’an Jiaotong University,CN,China (Mainland),21.8,380,50.7,165,22.2,601+,80.7,108,6.7,601+,4.3,601+,74.4,407,29,434,35.1,"西交利物浦大学 (南校区), 松涛街, 星慧社区, 月亮湾社工委, 金鸡湖街道, 苏州工业园区, 苏州市, 江苏省, 215123, 中国",120.7367903,31.27217325
303,304,University College Cork,IE,Ireland,29,295,38.1,246,36.7,424,25.9,479,94.6,143,42.6,324,76.3,370,32.8,386,35,"Glucksmann Gallery, Western Road, Gillabbey B, Cork, County Cork, Munster, T12 K8AF, Éire / Ireland",-8.4903073,51.8947384
304,305,University of Macau,MO,Macau SAR,9.5,501+,9.8,501+,16.4,601+,84,97,100,21,98.2,57,49.2,601+,73.8,123,34.9,"澳門大學 Universidade de Macau, 嘉模堂區 Nossa Senhora do Carmo, 氹仔 Taipa, 澳門 Macau, 999078, 中国",113.5438378,22.1284604
305,306,University of Surrey,UK,United Kingdom,20.4,413,28.1,345,21.5,601+,49.6,265,97.7,116,89.7,110,82.1,287,21,568,34.7,"University of Surrey, Ashenden Road Roundabout, Onslow Village, Guildford, Surrey, England, GU2 7XH, United Kingdom",-0.590054488,51.24307815
306,307,Huazhong University of Science and Technology,CN,China (Mainland),21.3,391,40.2,232,10.5,601+,96,40,6.2,601+,4.9,601+,75,394,20.5,577,34.6,"华中科技大学, 1037号, 珞喻路, 关东街道, 东湖新技术开发区（托管）, 洪山区, 武汉市, 湖北省, 430074, 中国",114.4118463,30.52021715
307,308,Tianjin University,CN,China (Mainland),18.3,469,4.3,501+,31.2,499,92,57,16.3,601+,19.6,543,69.5,464,30.6,409,34.4,"天津外国语大学（马场道校区）, 117号, 马场道, 五大道街道, 和平区, 天津市, 300040, 中国",117.2026275,39.1070508
308,309,Dalhousie University,CA,Canada,18.5,465,21.2,436,14.2,601+,63.8,182,100,61,80.5,156,81.7,296,18.4,601+,34.3,"Dalhousie University Studley Campus, Oxford Street, Marlborough Woods, Halifax, Halifax Regional Municipality, Halifax County, Nova Scotia, B3H 3Z2, Canada",-63.59199606,44.63620105
309,310,HSE University,RU,Russia,26.9,315,32.6,299,92.6,74,1.9,601+,7.8,601+,17.2,576,70.6,455,25.5,482,34.3,"South East Technological University - Kilkenny Research & Innovation Centre, College Road, Cill Chainnigh / Kilkenny, Kilkenny, County Kilkenny, Leinster, R95 TP64, Éire / Ireland",-7.2574785,52.6464003
310,311,National Research Nuclear University MEPhI (Moscow Engineering Physics Institute),RU,Russia,9.2,501+,11.3,501+,99.2,38,11.8,601+,52.9,340,89.1,113,42.7,601+,31.7,396,34.3,,,
311,312,Universität Innsbruck,AT,Austria,19.8,429,5.3,501+,65.7,218,12.8,601+,100,63,99.9,27,81,304,47.4,266,34.3,"Universität Innsbruck Campus Innrain, GEIWI-Platz, Innenstadt, Innsbruck, Tirol, 6020, Österreich",11.38447331,47.26331595
312,313,North Carolina State University,US,United States,29.2,293,23,415,11.3,601+,68.3,156,63.7,292,16,601+,79,334,31.3,398,34.1,"North Carolina State University (Centennial Campus), Oval Drive, Raleigh, Wake County, North Carolina, 27695, United States",-78.6741935,35.7714749
313,314,Tufts University,US,United States,18.3,470,7.2,501+,65.7,217,48.2,273,30.1,475,32.9,407,77.9,349,83.1,94,34.1,"Tufts University, Edison Avenue, Medford Hillside, Medford, Middlesex County, Massachusetts, 02144, United States",-71.11800725,42.40649125
314,315,University of Tsukuba,JP,Japan,33.9,252,17.5,501+,63.5,231,19.2,572,15,601+,26.5,457,61,557,13,601+,34.1,"筑波大学, 共同溝, 天王台一丁目, つくば市, 茨城県, 305-8377, 日本",140.1006602,36.1070526
315,316,La Trobe University,AU,Australia,20.8,401,20.9,442,6.4,601+,61.9,192,94.5,144,99.4,42,81.1,302,11.4,601+,33.9,"La Trobe University (Albury-Wodonga Campus), University Drive, West Wodonga, City of Wodonga, Victoria, 3690, Australia",146.8486497,-36.1119046
316,317,Université Grenoble Alpes,FR,France,43.3,192,12.5,501+,8.3,601+,51.1,252,25.7,518,37.8,364,97.4,32,13.3,601+,33.8,"IUT2 - GEA, 1, Place de Verdun, Hyper Centre, Secteur 2, Grenoble, Isère, Auvergne-Rhône-Alpes, France métropolitaine, 38000, France",5.731289992,45.1893526
317,318,University of Colorado Boulder,US,United States,37,229,13.5,501+,41.8,372,36.8,379,30.2,473,5.8,601+,89.6,172,47.2,267,33.8,"University of Colorado Boulder (Williams Village), Boulder, Boulder County, Colorado, United States",-105.2487837,39.9964767
318,319,University of Illinois at Chicago (UIC),US,United States,42,197,31.9,306,35.6,435,26.4,467,10.1,601+,15.4,601+,89.8,167,41.6,312,33.8,"University of Illinois at Chicago, 1200, West Harrison Street, Greektown, Near West Side, Chicago, West Chicago Township, Cook County, Illinois, 60607, United States",-87.64858476,41.8689223
319,320,Linköping University,SE,Sweden,19.8,430,25.6,376,32.5,475,55,231,74.7,239,36.2,380,89,185,22.3,545,33.7,"Linköpings universitet, Kemigränd, Västra Valla, Linköpings domkyrkodistrikt, Linköping, Linköpings kommun, Östergötlands län, 583 28, Sverige",15.57545442,58.3977911
320,321,Universidad Carlos III de Madrid (UC3M),ES,Spain,31,271,48.4,184,57.1,272,5.3,601+,46.4,372,29.5,430,65,510,11.7,601+,33.7,,,
321,322,Kazan (Volga region) Federal University,RU,Russia,20.8,402,7.6,501+,91.4,81,3.2,601+,11.1,601+,93.1,95,80.7,313,12.9,601+,33.4,,,
322,323,Pontificia Universidad Católica Argentina,AR,Argentina,20.4,410,43.3,218,99.8,25,1.1,601+,2.3,601+,7.4,601+,8.5,601+,26.1,472,33.3,"Universidad Católica Argentina (UCA), 1475, Patricias Mendocinas, Ciudad de Mendoza, Sección 1ª Parque Central, Departamento Capital, Mendoza, M5500EAV, Argentina",-68.84201985,-32.88601995
323,324,University of Milan,IT,Italy,49.8,155,15,501+,5.4,601+,48.5,272,9,601+,7.1,601+,88.4,191,16.5,601+,33.2,"Università degli Studi di Milano - Facoltà di Studi Umanistici, Facoltà di Giurisprudenza - Ospedale Maggiore, 7, Via Festa del Perdono, Cerchia dei Navigli, Municipio 1, Milano, Lombardia, 20122, Italia",9.194661601,45.4600626
324,325,Politecnico di Torino,IT,Italy,36.6,232,47.3,196,2.5,601+,54,236,3.3,601+,41.8,331,71.3,444,15.5,601+,33.1,"Politecnico di Torino, Corso Castelfidardo, Cit Turin, Circoscrizione 3, Torino, Piemonte, 10129, Italia",7.657526334,45.0636974
325,326,University of Strathclyde,UK,United Kingdom,25.9,328,41.8,224,18.8,601+,33.4,409,93.1,156,65.8,216,80,322,25.5,483,33.1,"University of Strathclyde, Cathedral Precinct, Townhead, Glasgow, Glasgow City, Alba / Scotland, G4 0QZ, United Kingdom",-4.241956566,55.8618812
326,327,National Taiwan University of Science and Technology (Taiwan Tech),TW,Taiwan,25.6,332,37.6,252,52.6,300,25.1,489,26.6,511,39.9,348,34.4,601+,50.8,245,33,,,
327,328,Goethe-University Frankfurt am Main,DE,Germany,45.4,179,28.6,338,26.4,564,15.6,601+,37.9,418,27.5,451,93.7,95,7.6,601+,32.9,"Seminarpavillon, Hansaallee, Westend Nord, Innenstadt 2, Frankfurt am Main, Hessen, 60323, Deutschland",8.669373175,50.1309981
328,329,Simon Fraser University,CA,Canada,24.9,343,21.2,435,5.4,601+,52.5,244,93.8,150,88.3,119,75.6,380,24.9,493,32.9,"Simon Fraser University, 8888, Tower Road, UniverCity, Burnaby, Metro Vancouver Regional District, British Columbia, V5A 1S6, Canada",-122.917803,49.2767096
329,330,Aalborg University,DK,Denmark,19.8,428,28.1,344,34.2,452,47.8,277,73.2,246,30,428,90.3,153,24.3,502,32.5,"Aalborg Universitet, Fredrik Bajers Vej, Sønder Tranders, Aalborg, Aalborg Kommune, Region Nordjylland, 9220, Danmark",9.975308244,57.01590705
330,331,University of Waikato,NZ,New Zealand,18.4,466,13,501+,12,601+,58.2,214,99.1,91,88.7,116,56.8,601+,54.2,221,32.3,"University of Waikato, May Street, Ruakura, Hamilton City, Waikato, 3216, New Zealand / Aotearoa",175.3167665,-37.7858739
331,332,National Taiwan Normal University,TW,Taiwan,32.7,257,18.6,489,68.3,198,6.3,601+,14.8,601+,28.1,445,25.2,601+,17.2,601+,32.2,"國立臺灣師範大學公館校區, 88, 汀州路四段, 萬年里, 文山區, 公館, 臺北市, 11677, 臺灣",121.5357715,25.00823205
332,333,Universidade Federal do Rio de Janeiro,BR,Brazil,58.1,123,25.3,379,19.3,601+,8.9,601+,9.2,601+,1.6,601+,77,363,52.2,235,32.1,"Universidade Federal do Rio de Janeiro, Linha Vermelha, Cidade Universitária, Zona Norte do Rio de Janeiro, Rio de Janeiro, Região Geográfica Imediata do Rio de Janeiro, Região Metropolitana do Rio de Janeiro, Região Geográfica Intermediária do Rio de Janeiro, Rio de Janeiro, Região Sudeste, 21944-970, Brasil",-43.23317029,-22.8533498
333,334,National University of Sciences And Technology (NUST) Islamabad,PK,Pakistan,18.2,474,67.7,104,77,154,9.6,601+,3,601+,5.7,601+,55.5,601+,14.6,601+,32,"National University of Sciences and Technology (NUST), Sector H 12, Kashmir Highway, ایچ-13, اسلام آباد, زون ۱, وفاقی دارالحکومت اسلام آباد, 44000, پاکستان",72.99177825,33.64481875
334,335,University of Cologne,DE,Germany,36.7,231,31,317,24.8,589,25.6,483,44.6,380,33,405,89.7,168,27.5,457,31.9,"Universität zu Köln, 1, Gottfried-Keller-Straße, Lindenthal, Köln, Nordrhein-Westfalen, 50931, Deutschland",6.928130515,50.92804455
335,336,University of Lisbon ,PT,Portugal,42.5,195,20.5,447,12.3,601+,38.2,364,10,601+,41.9,330,95.1,72,55.4,212,31.9,"Universidade de Lisboa - Cidade Universitária, Rua Interior Particular, Campo Grande, Alvalade, Lisboa, 1700-097, Portugal",-9.156203506,38.75109295
336,337,Ural Federal University - UrFU,RU,Russia,21.6,386,14,501+,96.1,60,2.1,601+,5.5,601+,36.6,377,77.2,360,7.2,601+,31.9,"УрФУ, улица Гагарина, Втузгородок, Кировский район, Екатеринбург, городской округ Екатеринбург, Свердловская область, Уральский федеральный округ, 620062, Россия",60.6453838,56.8433669
337,338,Hiroshima University,JP,Japan,22.4,372,13,501+,87.2,99,10.3,601+,20.1,582,17,581,57.2,601+,4.9,601+,31.8,"Hiroshima University　広島大学 東広島キャンパス, 出会いの道, 西条下見七丁目, 西条下見, 東広島市, 広島県, 739-0047, 日本",132.7123195,34.4019766
338,339,Indiana University Bloomington,US,United States,36.6,233,26.3,363,28.4,534,29.4,436,43.3,389,11.8,601+,87.1,210,63.8,174,31.7,"Indiana University Bloomington, South College Mall Road, Bloomington, Monroe County, Indiana, 47408, United States",-86.50935263,39.1802358
339,340,Friedrich-Alexander-Universität Erlangen-Nürnberg,DE,Germany,23.3,361,13.1,501+,2.6,601+,85.8,88,33.7,450,28.8,437,91.5,129,12,601+,31.6,"Friedrich-Alexander-Universität Erlangen-Nürnberg, Hindenburgstraße, Burgberg, Erlangen, Bayern, 91054, Deutschland",11.01622777,49.60030465
340,341,Universiti Teknologi Brunei,BN,Brunei,12,501+,7,501+,95.1,61,7.6,601+,99,93,8.6,601+,11.7,601+,1,601+,31.6,"Universiti Teknologi Brunei, Jalan Universiti, Tungku, Mukim Gadong A, Brunei-Muara, BE1410, Brunei",114.9008379,4.97821465
341,342,University of East Anglia (UEA),UK,United Kingdom,18.6,463,10.8,501+,21.5,601+,59.7,202,77.7,226,54.7,261,89.5,175,12.3,601+,31.5,"University of East Anglia, The Square, Earlham, Norwich, Norfolk, England, NR4 7TJ, United Kingdom",1.2411579,52.622251
342,343,"Birkbeck, University of London",UK,United Kingdom,11.2,501+,3.2,501+,13.1,601+,70.1,148,97.5,119,98.1,58,50.5,601+,8.6,601+,31.4,"Birkbeck College, Malet Street, St Giles, Bloomsbury, London Borough of Camden, London, Greater London, England, WC1E 7HX, United Kingdom",-0.130215507,51.52184485
343,344,Universitat Politècnica de Catalunya · BarcelonaTech (UPC),ES,Spain,32.5,261,25.8,372,45.1,341,24.7,495,12.7,601+,21.8,510,89.2,181,18.9,601+,31.4,,,
344,345,MGIMO University,RU,Russia,12.5,501+,24.6,389,100,18,1.4,601+,15.8,601+,52.4,278,1.5,601+,93.9,46,31.3,"Московский государственный институт международных отношений (МГИМО), улица Лобачевского, Проспект Вернадского, район Проспект Вернадского, Москва, Центральный федеральный округ, 119454, Россия",37.48570887,55.67259515
345,346,Ewha Womans University,KR,South Korea,23.4,360,22.2,427,79.4,141,9.1,601+,8.3,601+,27.3,453,33.2,601+,15.8,601+,31.2,"이화여자대학교, 52, 이화여대길, 대현동, 신촌동, 서대문구, 서울, 03760, 대한민국",126.9468925,37.5643371
346,347,IE University,ES,Spain,6.7,501+,47.6,192,66.6,210,2.6,601+,92.9,159,100,5,6,601+,67.9,150,31.1,"IE Universidad, Calle Cardenal Zúñiga, San Lorenzo, Segovia, Castilla y León, 40003, España",-4.119041942,40.95331165
347,348,University of Jyväskylä,FI,Finland,16.9,498,15.4,501+,83.6,118,19.3,570,39.1,410,3.1,601+,79,335,6.3,601+,31.1,"Jyväskylän yliopisto, Ylistönrinteen kampus, Ylistön portaat, Ylistönrinne, Ristonmaa, Jyväskylä, Jyväskylän seutukunta, Keski-Suomi, Länsi- ja Sisä-Suomen aluehallintovirasto, Manner-Suomi, 40101, Suomi / Finland",25.74003691,62.22902785
348,349,University of Southern Denmark (SDU),DK,Denmark,19.3,445,20.6,445,35.2,440,44.5,306,82.4,211,22.7,497,82.5,279,21.1,563,31.1,"Syddansk Universitet, Moseskovvej, Cortex Park, Odense, Odense Kommune, Region Syddanmark, 5230, Danmark",10.42805341,55.36785325
349,350,Johannes Kepler University Linz,AT,Austria,11.4,501+,11,501+,79.5,140,20,562,84.2,206,22.4,499,62.7,536,21.1,562,31,"Johannes-Kepler-Universität Linz, Altenberger Straße, Dornach, Dornach-Auhof, Linz, Oberösterreich, 4040, Österreich",14.32056738,48.33609325
350,351,University of Connecticut,US,United States,15.5,501+,10.7,501+,11.5,601+,82.8,99,69,262,24.4,474,86.9,213,35.5,362,31,"University of Connecticut, North Eagleville Road, Northwest Quadrangle, Storrs, Mansfield, Capitol Planning Region, Connecticut, 06269, United States",-72.24277536,41.82175755
351,352,Norwegian University of Science And Technology,NO,Norway,33.9,251,27,356,25.5,577,25.1,487,76.6,229,11.4,601+,95.8,61,47.9,264,30.9,"NTNU Ringve botaniske hage, Lade allé, Leangen, Ringve, Østbyen, Trondheim, Trøndelag, 7041, Norge",10.45363941,63.44802385
352,353,Universität Jena,DE,Germany,18.4,468,3.3,501+,99.9,21,9.2,601+,,,24,479,87.7,202,8.1,601+,30.9,"Friedrich-Schiller-Universität Jena, Carl-Zeiss-Promenade, Lichtenhain, Jena, Thüringen, 07745, Deutschland",11.57798667,50.93264265
353,354, University of Dundee,UK,United Kingdom,18.9,454,15,501+,35.5,436,30.1,428,99,95,69.8,203,57.9,597,11.8,601+,30.8,"University of Dundee, Nethergate, Seabraes, City Centre, Dundee, Dundee City, Alba / Scotland, DD1 4HN, United Kingdom",-2.982148314,56.45796755
354,355,Beijing Institute of Technology,CN,China (Mainland),20.7,403,15,501+,37.7,409,64.3,178,3.4,601+,4.7,601+,63.4,528,14.5,601+,30.7,"北京理工大学, 5, 中关村南大街, 友谊社区, 中关村街道, 海淀镇, 海淀区, 北京市, 100086, 中国",116.3098237,39.9578214
355,356,"City, University of London",UK,United Kingdom,20.6,405,18.7,486,8.6,601+,44.3,308,97.3,121,99.5,39,67.6,488,42.3,308,30.7,"London, Greater London, England, SW1A 2DX, United Kingdom",-0.12765,51.5073359
356,357,Universität Stuttgart,DE,Germany,24.1,352,24.2,397,5.7,601+,65.8,170,36.7,429,47.3,305,80.9,308,28.3,446,30.7,"Universität Stuttgart, Jasminweg, Waldau, Degerloch, Stuttgart, Filderstadt, Baden-Württemberg, 70597, Deutschland",9.103267539,48.7453828
357,358,"University of Chemistry and Technology, Prague",CZ,Czech Republic,6.5,501+,7.9,501+,99.7,29,13,601+,28.3,495,61.2,230,35.2,601+,44.1,290,30.6,"Vysoká škola chemicko-technologická v Praze, Zikova, Dejvice, Hlavní město Praha, Praha, 162 01, Česko",14.39062996,50.10222205
358,359,ITMO University,RU,Russia,11.9,501+,15.5,501+,96.2,59,7.3,601+,23.1,543,42.8,322,61.7,550,4.2,601+,30.5,"Университет ИТМО, 49, Кронверкский проспект, Петроградская сторона, округ Кронверкское, Санкт-Петербург, Северо-Западный федеральный округ, 197101, Россия",30.30873772,59.9567438
359,360,University of Victoria (UVic),CA,Canada,17.1,494,9.8,501+,3.6,601+,71.9,135,91.2,167,58.2,246,63.8,523,10.4,601+,30.5,"University of Victoria, Gordon Head Road, Saanich, Capital Regional District, British Columbia, V8N 3X2, Canada",-123.3169956,48.4697748
360,361,Universiti Teknologi PETRONAS (UTP),MY,Malaysia,16.4,501+,29.8,326,31.8,487,46,294,85.2,200,18.4,556,65.5,504,10.6,601+,30.4,"Universiti Teknologi Petronas, Persiaran Masjid, Seri Iskandar, Perak Tengah, Perak, 32610, Malaysia",100.9701137,4.3827595
361,362,George Washington University,US,United States,27.2,310,29,334,31.3,495,32.6,415,39.2,408,32.1,415,86.1,223,66.6,157,30.3,"George Washington University, Washington, District of Columbia, 20433, United States",-77.04744828,38.89989375
362,363,Kobe University,JP,Japan,27.3,309,35.9,270,64.1,228,9.3,601+,8.6,601+,9.2,601+,45.1,601+,12.9,601+,30.2,"神戸大学 六甲台第1キャンパス, 市道神戸六甲線, 水車新田, 灘区, 神戸市, 兵庫県, 657-0067, 日本",135.2370533,34.72758
363,364,Pontificia Universidad Católica del Perú,PE,Peru,43.8,188,63.2,118,27.7,545,1.8,601+,4.3,601+,1.5,601+,34.5,601+,48.9,260,30.2,"Pontificia Universidad Católica del Perú, 1801, Avenida Universitaria, Pueblo Libre, Lima, Lima Metropolitana, Lima, 15088, Perú",-77.07993483,-12.0691658
364,365,Quaid-i-Azam University,PK,Pakistan,15.4,501+,38.4,245,2.6,601+,95.8,41,3.8,601+,2.6,601+,59.2,578,16.6,601+,30.2,,,
365,366,University of South Australia,AU,Australia,21.7,383,12.7,501+,20.8,601+,38.2,365,99.9,67,65.2,218,76,373,19.1,601+,30.2,"University of South Australia, Wireless Road West, Suttontown, Mount Gambier, City of Mount Gambier, South Australia, 5290, Australia",140.766463,-37.8062142
366,367,Virginia Polytechnic Institute and State University,US,United States,28.5,299,25.6,375,20,601+,38.5,362,68.4,267,18.5,554,84.1,259,28.5,445,30.2,"Virginia Polytechnic Institute and State University, 800, Drillfield Drive, Blacksburg, Montgomery County, Virginia, 24061, United States",-80.42728184,37.22192675
367,368,Lincoln University ,NZ,New Zealand,7.5,501+,5.9,501+,43.7,352,39.1,358,100,47,95.5,75,20.8,601+,93.6,48,30.1,"Lincoln University, 1570, Baltimore Pike, Lower Oxford Township, Chester County, Pennsylvania, 19352, United States",-75.92870551,39.8065518
368,369,Airlangga University,ID,Indonesia,30.8,277,60.9,125,48.3,322,1.3,601+,26,514,3,601+,14.5,601+,10,601+,29.9,"Kampus B Universitas Airlangga, Jalan Airlangga, RW 02, Airlangga, Gubeng, Surabaya, Jawa Timur, Jawa, 60286, Indonesia",112.7585354,-7.27207695
369,370,American University of Sharjah,AE,United Arab Emirates,18.7,457,35.8,272,26.2,565,17.3,593,100,2,100,6,30.2,601+,79.3,109,29.9,"الجامعة الأمريكية بالشارقة, STAIRS 03, الجرينة 1, ملويلح, مدينة الشارقة, الشارقة, الإمارات العربية المتحدة",55.49136821,25.31022225
370,371,Indian Institute of Technology Roorkee (IITR),IN,India,16,501+,23.9,402,9.6,601+,94.5,47,1.1,601+,2.5,601+,35.6,601+,18.4,601+,29.9,"Indian Institute of Technology Roorkee, Civil Lines, Roorkee, Haridwar District, Uttarakhand, 247667, India",77.89573483,29.86616555
371,372,Umea University,SE,Sweden,20,426,11.5,501+,77.1,152,17,598,25.7,521,10.6,601+,82.4,282,6.2,601+,29.9,"Konstnärligt campus, Östra Strandgatan, Öbacka, Öst på stan, Centrala stan, Umeå, Umeå kommun, Västerbottens län, 903 33, Sverige",20.27602128,63.82081665
372,373,Universidade Nova de Lisboa,PT,Portugal,28.7,298,20.5,448,25,585,35,391,23.6,538,60.8,232,88.4,190,22.1,548,29.9,"Universidade Nova de Lisboa, Corredor Verde Monsanto-Parque Eduardo VII, Campolide, Lisboa, 1099-085, Portugal",-9.1602002,38.7328407
373,374,University of Kansas,US,United States,14.9,501+,16.1,501+,80.5,134,11.2,601+,68.9,263,8.2,601+,80.9,307,23.1,524,29.9,"University of Kansas, 1450, Jayhawk Boulevard, Lawrence, Douglas County, Kansas, 66045, United States",-95.2630888,38.9534918
374,375,"University of California, Santa Cruz",US,United States,18.6,462,5,501+,8,601+,81.4,105,63.5,296,13.4,601+,60.5,564,15.4,601+,29.8,"University of California, Santa Cruz, Stoneybrook Way, Western Drive/Nobel, Santa Cruz, Santa Cruz County, California, 95064, United States",-122.0622122,37.00012445
375,376,University of Kent,UK,United Kingdom,18.2,472,6.4,501+,16.6,601+,50.7,255,96.7,126,68.4,209,69.5,465,32.7,388,29.8,"University of Kent, Brockenhurst Close, St. Dunstan's, Harbledown, Canterbury, Kent, England, CT2 7RZ, United Kingdom",1.067301086,51.29501575
376,377,University Ulm,DE,Germany,7.6,501+,3.2,501+,80.6,133,34.4,398,42.7,394,23,492,60.7,561,7.5,601+,29.8,"École normale supérieure - Université PSL, Rue d'Ulm, Quartier du Val-de-Grâce, Paris 5e Arrondissement, Paris, Île-de-France, France métropolitaine, 75005, France",2.344792313,48.84170715
377,378,Czech Technical University in Prague,CZ,Czech Republic,19.9,427,33.2,292,68.9,194,4.9,601+,23.7,536,47.3,306,75,392,8.7,601+,29.7,"České vysoké učení technické v Praze, Šolínova, Dejvice, Hlavní město Praha, Praha, 162 01, Česko",14.3946353,50.1029026
378,379,Nankai University,CN,China (Mainland),21.2,393,5,501+,28.7,533,70.5,144,11,601+,3.7,601+,39.1,601+,24.2,503,29.7,"南开大学, 大学道, 学府街道, 南开区, 天津市, 300084, 中国",117.1609501,39.101985
379,380,Sharif University of Technology,IR,"Iran, Islamic Republic of",11.6,501+,31.8,309,7.7,601+,98.3,23,8,601+,1.3,601+,52.3,601+,82,97,29.6,"دانشگاه صنعتی شریف, خیابان آزادی, تیموری, منطقه ۲ شهر تهران, شهر تهران, بخش مرکزی شهرستان تهران, شهرستان تهران, استان تهران, 14588-89311, ایران",51.35171721,35.7024933
380,381,University of Hawaiʻi at Mānoa,US,United States,15.6,501+,14.3,501+,45.4,339,46.1,291,55.4,330,14.2,601+,84.8,245,10.2,601+,29.6,"University of Hawaiʻi at Mānoa, 2500, Campus Road, Lower Mānoa, Mānoa, Honolulu, Honolulu County, Hawaii, 96822, United States",-157.8186919,21.2982795
381,382,Peter the Great St. Petersburg Polytechnic University,RU,Russia,15,501+,10.4,501+,81.4,127,3.7,601+,16.4,601+,89.3,111,45.4,601+,18.7,601+,29.5,"Санкт-Петербургский политехнический университет Петра Великого, аллея Огневского, Лесной, округ Светлановское, Санкт-Петербург, Северо-Западный федеральный округ, 194153, Россия",30.37674721,60.00593755
382,383,Pontificia Universidad Javeriana,CO,Colombia,41,203,82.4,67,20.1,601+,1.8,601+,4.9,601+,1.9,601+,27.6,601+,37.2,350,29.5,"Pontificia Universidad Javeriana, 40-62, Avenida Carrera 7, Mariscal Sucre, UPZ Chapinero, Localidad Chapinero, Bogotá, Bogotá, Distrito Capital, RAP (Especial) Central, 110231, Colombia",-74.06364581,4.628721
383,384,Indian Institute of Technology Guwahati (IITG),IN,India,15.1,501+,16.9,501+,9.5,601+,96.3,37,3.4,601+,1.3,601+,36.6,601+,23.5,514,29.3,"Indian Institute of Technology Guwahati, Footpath surrounding sports area, North Guwahati (Pt), Kamrup Metropolitan District, Assam, 781039, India",91.69463569,26.19247875
384,385,Sultan Qaboos University,OM,Oman,15,501+,16.9,501+,67.3,206,14.3,601+,100,52,3.7,601+,86.8,215,63.4,177,29.3,"جامعة السلطان قابوس, Sultan Qaboos University West Entrance, السيب, مسقط, 124, عمان",58.1718542,23.5908857
